[{"entityID":"http://adfs.tue.nl/adfs/services/trust","country":"NL","title":"Technische Universiteit Eindhoven","geo":{"lat":"51.4488798","lon":"5.4904541"},"icon":"cached/e66635b31faee030255837f402b87d936d864758"},{"entityID":"http://federation.umcg.nl/adfs/services/trust","country":"NL","title":"UMC Groningen","geo":{"lat":"52.0833","lon":"5.1333"},"icon":"cached/f5821dcbc37ab688396f5e75a9ea3d1ca8e7d481"},{"entityID":"http://idp.northampton.ac.uk/oala/metadata","country":"GB","title":"University of Northampton (IDP)","geo":{"lat":"52.25","lon":"-0.8833"}},{"entityID":"http://idp.rhul.ac.uk/oala","country":"GB","title":"Royal Holloway OALA","geo":{"lat":"35.0845","lon":"-106.6511"}},{"entityID":"http://oasp.beta.athensams.net/OaspMetadata","country":"GB","title":"Eduserv Beta"},{"entityID":"http://sso.sunderland.ac.uk/auth/metadata","country":"GB","title":"University of Sunderland","geo":{"lat":"54.9119","lon":"-1.3833"}},{"entityID":"http://stsr4l.who.int/adfs/services/trust","country":"GB","title":"Research4Life","geo":{"lat":"46.1956","lon":"6.1481"}},{"entityID":"https://Shibboleth.uem.br/idp/shibboleth","country":"GB","title":"UEM - Universidade Estadual de Maringa","geo":{"lat":"-22.9","lon":"-43.2333"}},{"entityID":"https://aai-idp.unibe.ch/idp/shibboleth","country":"CH","title":"University of Bern","geo":[{"lat":"46.950509","lon":"7.438155"}],"icon":"cached/eb12fe63fe25ffe47524d8103dfcc7d5f21ad069"},{"entityID":"https://aai-idp.uzh.ch/idp/shibboleth","country":"CH","title":"University of Zurich","geo":[{"lat":"47.374571","lon":"8.548659"},{"lat":"47.397194","lon":"8.548950"},{"lat":"47.410914","lon":"8.540683"}],"icon":"cached/76183758e8d9e947225b9acea188cf950816e094"},{"entityID":"https://aai-login.fh-htwchur.ch/idp/shibboleth","country":"CH","title":"HTW Chur - University of Applied Sciences HTW Chur","geo":[{"lat":"46.852909","lon":"9.512614"}],"icon":"cached/f1941735dabea06fc7f6ef2d352d3bb14d496a15"},{"entityID":"https://aai-login.ph-gr.ch/idp/shibboleth","country":"CH","title":"PHGR - University of Teacher Education Graubu00fcnden","geo":[{"lat":"46.866984","lon":"9.536721"}],"icon":"cached/12cf00394b80db9d77b9910e66001351c41a48b1"},{"entityID":"https://aai-logon.bfh.ch/idp/shibboleth","country":"CH","title":"BFH - Bern University of Applied Sciences","geo":[{"lat":"47.142358","lon":"7.244692"},{"lat":"47.057423","lon":"7.621388"},{"lat":"46.947922","lon":"7.444609"},{"lat":"46.946692","lon":"7.391228"},{"lat":"46.991818","lon":"7.468039"},{"lat":"47.145776","lon":"7.219669"}],"icon":"cached/1f72d9e41413a60108ca1d4b645df2648a966eb5"},{"entityID":"https://aai-logon.fhnw.ch/idp/shibboleth","country":"CH","title":"FHNW - University of Applied Sciences and Arts Northwestern Switzerland","geo":[{"lat":"47.392715","lon":"8.054434"},{"lat":"47.562410","lon":"7.584170"},{"lat":"47.485184","lon":"8.198633"},{"lat":"47.475698","lon":"7.740292"},{"lat":"47.533412","lon":"7.638095"},{"lat":"47.346483","lon":"7.911239"},{"lat":"47.212806","lon":"7.543743"},{"lat":"47.480694","lon":"8.211173"},{"lat":"47.282572","lon":"7.942067"}],"icon":"cached/e7e0b5395eec37164157f704b5bb08713a6cded5"},{"entityID":"https://aai-logon.fhsg.ch/idp/shibboleth","country":"CH","title":"FHS St.Gallen","geo":[{"lat":"47.425413","lon":"9.371350"}],"icon":"cached/a7c2592b81b096306a2998e5cbdc05e3a0653a4d"},{"entityID":"https://aai-logon.hes-so.ch/idp/shibboleth","country":"CH","title":"HES-SO : UAS Western Switzerland","geo":[{"lat":"46.996710","lon":"6.936891"},{"lat":"46.793393","lon":"7.159078"},{"lat":"46.207325","lon":"6.099785"},{"lat":"46.293093","lon":"7.536841"},{"lat":"46.379599","lon":"7.626590"},{"lat":"46.235924","lon":"7.351375"},{"lat":"46.287826","lon":"7.884015"},{"lat":"47.361332","lon":"7.345858"},{"lat":"46.779445","lon":"6.658656"},{"lat":"46.526928","lon":"6.627963"}],"icon":"cached/e791eefa5d198dbb3589928d61d98175782da7c5"},{"entityID":"https://aai-logon.psi.ch/idp/shibboleth","country":"CH","title":"PSI - Paul Scherrer Institute","geo":[{"lat":"47.537688","lon":"8.222623"}],"icon":"cached/518f143da6a9668d839b82d50825097bc6f366f4"},{"entityID":"https://aai-logon.switch.ch/idp/shibboleth","country":"CH","title":"SWITCH","geo":[{"lat":"47.37333","lon":"8.53111"}],"icon":"cached/4209741fc33e5a2e81b99b8ef4fad07d8a2a9bc6"},{"entityID":"https://aai-logon.uni.li/idp/shibboleth","country":"GB","title":"University of Liechtenstein","geo":[{"lat":"47.149655","lon":"9.516456"}],"icon":"cached/b4eb010cdaac17097dd1cc2e3c69f326fc54a904"},{"entityID":"https://aai-logon.wsl.ch/idp/shibboleth","country":"CH","title":"WSL - Swiss Federal Institute for Forest, Snow and Landscape Research","geo":[{"lat":"47.360644","lon":"8.454924"}],"icon":"cached/2982b50a1601559f2e94e8f0842715d976ceb9e9"},{"entityID":"https://aai.rz.uni-leipzig.de/idp/shibboleth","country":"DE","title":"University of Leipzig","geo":{"lat":"51.341371","lon":"12.3800688"},"icon":"cached/d8c170e3665f7f94d9b233a0e93ccf6990b0b3b8"},{"entityID":"https://aai.unifr.ch/idp/shibboleth","country":"CH","title":"University of Fribourg","geo":[{"lat":"46.806228","lon":"7.152400"}],"icon":"cached/b6342800b6b74496e9702111764121867bb94407"},{"entityID":"https://abcidp.askham-bryan.ac.uk/shibboleth","country":"GB","title":"Askham Bryan College","geo":{"lat":"53.9856132","lon":"-1.5073438"}},{"entityID":"https://access.hro.nl/simplesaml/saml2/idp/metadata.php","country":"NL","title":"Rotterdam University","geo":{"lat":"51.9152679","lon":"4.5276762"},"icon":"cached/c23dce04e1041551aad6248050a610b9814dfbf6"},{"entityID":"https://access.lcb.ac.uk/idp/shibboleth","country":"GB","title":"Leeds College of Building","geo":{"lat":"53.80366","lon":"-1.55395"}},{"entityID":"https://access.wigan-leigh.ac.uk/oala/metadata","country":"GB","title":"Wigan & Leigh College","geo":{"lat":"53.54544","lon":"-2.637474"}},{"entityID":"https://acesso.ufabc.edu.br/idp/shibboleth","country":"GB","title":"UFABC - Universidade Federal do ABC","geo":{"lat":"-10","lon":"-55"}},{"entityID":"https://afbi-shib.ads.qub.ac.uk/idp/shibboleth","country":"GB","title":"AFBI: Agri-Food Biosciences Institute","geo":{"lat":"54.5833","lon":"-5.9333"}},{"entityID":"https://aishib.agropolis.fr/idp/shibboleth","country":"GB","title":"Agropolis International","geo":{"lat":"43.6109","lon":"3.8772"}},{"entityID":"https://aleph.svkhk.cz/idp/shibboleth","country":"CZ","title":"The Research Library in Hradec Kru00e1lovu00e9","geo":{"lat":"50.1514","lon":"15.7916"},"icon":"cached/b9cb1e330afc9dc9a78dcea002bffaca880b4bb2"},{"entityID":"https://ambre.vetagro-sup.fr/idp/shibboleth","country":"GB","title":"Vetagro Sup","geo":{"lat":"45.7907627","lon":"4.7091425"}},{"entityID":"https://antimoine.insa-strasbourg.fr/idp/shibboleth","country":"GB","title":"INSA de Strasbourg","geo":{"lat":"48.6004","lon":"7.7874"}},{"entityID":"https://apu.uepb.edu.br/idp/shibboleth","country":"GB","title":"UEPB - Universidade Estadual da Paraiba","geo":{"lat":"-10","lon":"-55"}},{"entityID":"https://araripe.uece.br/idp/shibboleth","country":"GB","title":"UECE - Universidade Estadiual do Ceara","geo":{"lat":"-10","lon":"-55"}},{"entityID":"https://arauto.fapesp.br/idp/shibboleth","country":"GB","title":"FAPESP - Fundacao de Amparo a pesquisa do estado de Sao Paulo","geo":{"lat":"-23.4733","lon":"-46.6658"}},{"entityID":"https://athens.bruford.ac.uk/oala/metadata","country":"GB","title":"Rose Bruford College (Athens LA)","geo":{"lat":"51.4506","lon":"0.164"},"icon":"cached/13ac17d62d9527a5ba7ae415b7f01dd3b09d6fe7"},{"entityID":"https://athens.gcc.ac.uk/oala/metadata","country":"GB","title":"Greenwich Community College OALA","geo":{"lat":"51.483061","lon":"-0.004151"}},{"entityID":"https://athens.londonexternal.ac.uk/OpenAthens","country":"GB","title":"University of London: External System (ATHENS)","geo":{"lat":"54","lon":"-2"}},{"entityID":"https://athens.petroc.ac.uk/oala/metadata","country":"GB","title":"PETROC","geo":{"lat":"51.072555","lon":"-4.070616"}},{"entityID":"https://athens.regents.ac.uk/oala/metadata","country":"GB","title":"Regent's University London","geo":{"lat":"51.5142","lon":"-0.0931"}},{"entityID":"https://athens.sfx.ac.uk/oala/metadata","country":"GB","title":"St.Francis Xavier 6th Form College SSO","geo":{"lat":"54","lon":"-2"}},{"entityID":"https://athens.winchester.ac.uk/oala/metadata","country":"GB","title":"University of Winchester Pilot","geo":{"lat":"51.0167","lon":"-1.3167"}},{"entityID":"https://athensla-dev.uwe.ac.uk/oala/metadata","country":"GB","title":"University of the West of England (UWE) - OpenAthens test","geo":{"lat":"51.4999414","lon":"-2.5475037"}},{"entityID":"https://athensla.uwe.ac.uk/oala/metadata","country":"GB","title":"University of the West of England (UWE)","geo":{"lat":"51.50419","lon":"-2.54955"},"icon":"cached/b3ad4c0d7c9677d8f90e947415158d4d0c2200da"},{"entityID":"https://athenslart.nelson.ac.uk/oala/metadata","country":"GB","title":"Nelson and Colne College","geo":{"lat":"51.5836","lon":"-3.4253"}},{"entityID":"https://athensproxy.ids.ac.uk/oala/metadata","country":"GB","title":"Institute of Development Studies","geo":{"lat":"50.86596","lon":"-0.0901"}},{"entityID":"https://athensri.forthvalley.ac.uk/oala/metadata","country":"GB","title":"Forth Valley College","geo":{"lat":"56","lon":"-3.7667"}},{"entityID":"https://auth.agrosupdijon.fr/idp/shibboleth","country":"GB","title":"Agrosup DIJON INSSAAE","geo":{"lat":"47.3167","lon":"5.0167"}},{"entityID":"https://auth.aspirationtraining.com/idp/shibboleth","country":"GB","title":"Aspiration Training","geo":{"lat":"35.6974","lon":"-95.389"}},{"entityID":"https://auth.buckingham.ac.uk/shibboleth","country":"GB","title":"University of Buckingham","geo":{"lat":"51.9961233","lon":"-0.9919337"}},{"entityID":"https://auth.crous-versailles.fr/idp/shibboleth","country":"GB","title":"CROUS Versailles - Personnels","geo":{"lat":"43.9272","lon":"2.1493"}},{"entityID":"https://auth.mines-paristech.fr/idp/shibboleth","country":"GB","title":"MINES ParisTech","geo":{"lat":"48.8450369","lon":"2.33878"}},{"entityID":"https://auth.u-pec.fr/idp/shibboleth","country":"GB","title":"Universitu00e9 de Paris Est Cru00e9teil - UPEC","geo":{"lat":"48.7881077","lon":"2.4447859"}},{"entityID":"https://auth.univ-paris-diderot.fr/idp/shibboleth","country":"GB","title":"Universitu00e9 de Paris 7 - Denis Diderot","geo":{"lat":"48.8667","lon":"2.3333"}},{"entityID":"https://auth.univ-pau.fr/idp/shibboleth","country":"GB","title":"Universitu00e9 de Pau et des Pays de l'Adour","geo":{"lat":"43.3145938","lon":"-0.3656223"}},{"entityID":"https://authest.bathspa.ac.uk/oala/metadata","country":"GB","title":"Bath Spa University Test IdP","geo":{"lat":"51.3794","lon":"-2.3656"}},{"entityID":"https://bathspa.ac.uk/oala/metadata","country":"GB","title":"Bath Spa University","geo":{"lat":"51.3764001","lon":"-2.4373775"}},{"entityID":"https://beaumontcollege.org/oala/metadata","country":"GB","title":"Beaumont College - A Scope College","geo":{"lat":"51.4347","lon":"-3.18"}},{"entityID":"https://beta.shib.manchester.ac.uk/shibboleth","country":"GB","title":"The University of Manchester (Beta)","geo":[{"lat":"53.465624","lon":"-2.233193"},{"lat":"53.474881","lon":"-2.233593"},{"lat":"53.236237","lon":"-2.306421"},{"lat":"53.480372","lon":"-2.24893"},{"lat":"51.572576","lon":"-1.315923"},{"lat":"53.462436","lon":"-2.227711"},{"lat":"53.429749","lon":"-2.230049"},{"lat":"53.445089","lon":"-2.278115"},{"lat":"53.490592","lon":"-2.28839"},{"lat":"53.487545","lon":"-2.323424"},{"lat":"53.427332","lon":"-2.247825"},{"lat":"46.23145","lon":"6.050119"}],"icon":"cached/f83d45af457b7ed6d6e176a10ef446240e52cd40"},{"entityID":"https://biblio.bo.cnr.it/idp/shibboleth","country":"GB","title":"CNR Bologna Research Area","geo":{"lat":"44.4941903","lon":"11.3465185"}},{"entityID":"https://bmcidp.brooksbymelton.ac.uk/idp/shibboleth","country":"GB","title":"Brooksby Melton College","geo":{"lat":"52.766663","lon":"-0.891351"}},{"entityID":"https://boleth.chi.ac.uk/idp/shibboleth","country":"GB","title":"University of Chichester","geo":{"lat":"51.5","lon":"-0.13"}},{"entityID":"https://bolton.ac.uk/oala/metadata","country":"GB","title":"University of Bolton","geo":{"lat":"53.5735039","lon":"-2.4361722"}},{"entityID":"https://brad.ac.uk/oala/metadata","country":"GB","title":"University of Bradford","geo":{"lat":"53.7833","lon":"-1.75"}},{"entityID":"https://bradfordlearning.net/shibboleth","country":"GB","title":"Bradford Learning Network","geo":{"lat":"53.7833","lon":"-1.75"}},{"entityID":"https://bsp-idp-test.shibboleth.ox.ac.uk/shibboleth","country":"GB","title":"University of Oxford: (BSP-test)","geo":{"lat":"51.75","lon":"-1.25"}},{"entityID":"https://bsp-idp.shibboleth.ox.ac.uk/shibboleth","country":"GB","title":"University of Oxford (BSP)","geo":{"lat":"51.75","lon":"-1.25"}},{"entityID":"https://butare.ifrn.edu.br/idp/shibboleth","country":"GB","title":"IFRN - Instituto Federal do Rio Grande do Norte","geo":{"lat":"-10","lon":"-55"}},{"entityID":"https://bwidpsrv01.bridgwater.ac.uk/idp/shibboleth","country":"GB","title":"Bridgwater College","geo":{"lat":"50.9493084","lon":"-2.6864639"}},{"entityID":"https://cafe-gateway.ifce.edu.br/idp/shibboleth","country":"GB","title":"IFCE - Instituto Federal de Educacao do Ceara","geo":{"lat":"-10","lon":"-55"}},{"entityID":"https://cafe-idp.ufc.br/idp/shibboleth","country":"GB","title":"UFC - Universidade Federal do Ceara","geo":{"lat":"-10","lon":"-55"}},{"entityID":"https://cafe.accamargo.org.br/idp/shibboleth","country":"GB","title":"ACC - A.C.Camargo Cancer Center","geo":{"lat":"-10","lon":"-55"}},{"entityID":"https://cafe.fucape.br/idp/shibboleth","country":"GB","title":"FUCAPE - Fundacao Instituto Capixaba de Pesquisa em Contabilidade, Economia e Financas","geo":{"lat":"-10","lon":"-55"}},{"entityID":"https://cafe.iec.pa.gov.br/idp/shibboleth","country":"GB","title":"IEC - Instituto Evandro Chagas","geo":{"lat":"-10","lon":"-55"}},{"entityID":"https://cafe.ifb.edu.br/idp/shibboleth","country":"GB","title":"IFB -Instituto Federal de Brasilia","geo":{"lat":"-10","lon":"-55"}},{"entityID":"https://cafe.ifes.edu.br/idp/shibboleth","country":"GB","title":"IFES - Instituto Federal do Espirito Santo","geo":{"lat":"-20.3167","lon":"-40.35"}},{"entityID":"https://cafe.ifg.edu.br/idp/shibboleth","country":"GB","title":"IFG - Instituto Federal de Goias","geo":{"lat":"-16.6667","lon":"-49.2667"}},{"entityID":"https://cafe.ifnmg.edu.br/idp/shibboleth","country":"GB","title":"IFNMG - Instituto Federal Do Norte De Minas Gerais","geo":{"lat":"-23.548","lon":"-46.636"}},{"entityID":"https://cafe.ifpa.edu.br/idp/shibboleth","country":"GB","title":"IFPA - Instituto Federal do Para","geo":{"lat":"-10","lon":"-55"}},{"entityID":"https://cafe.ifro.edu.br/idp/shibboleth","country":"GB","title":"IFRO","geo":{"lat":"-10","lon":"-55"}},{"entityID":"https://cafe.ifrs.edu.br/idp/shibboleth","country":"GB","title":"IFRS - Instituto Federal de Educacao, Ciencia e Tecnologia do Rio Grande do Sul","geo":{"lat":"-10","lon":"-55"}},{"entityID":"https://cafe.ifsp.edu.br/idp/shibboleth","country":"GB","title":"IFSP - Instituto Federal de Sao Paulo","geo":{"lat":"-10","lon":"-55"}},{"entityID":"https://cafe.on.br/idp/shibboleth","country":"GB","title":"ON - Observatorio Nacional","geo":{"lat":"-22.9","lon":"-43.2333"}},{"entityID":"https://cafe.pucminas.br/idp/shibboleth","country":"GB","title":"PUCMINAS - Pontificia Universidade Catolica de Minas Gerais","geo":{"lat":"-10","lon":"-55"}},{"entityID":"https://cafe.sti.uff.br/idp/shibboleth","country":"GB","title":"UFF - Universidade Federal Fluminense","geo":{"lat":"-22.8844","lon":"-43.0944"}},{"entityID":"https://cafe.udesc.br/idp/shibboleth","country":"GB","title":"UDESC - Universidade do Estado de Santa Catarina","geo":{"lat":"-10","lon":"-55"}},{"entityID":"https://cafe.uesb.br/idp/shibboleth","country":"GB","title":"UESB - Universidade Estadual do Sudoeste da Bahia","geo":{"lat":"-10","lon":"-55"}},{"entityID":"https://cafe.uesc.br/idp/shibboleth","country":"GB","title":"UESC - Universidade Estadual de Santa Cruz","geo":{"lat":"-10","lon":"-55"}},{"entityID":"https://cafe.ufal.br/idp/shibboleth","country":"GB","title":"UFAL - Universidade Federal de Alagoas","geo":{"lat":"-9.6667","lon":"-35.7167"}},{"entityID":"https://cafe.ufba.br/idp/shibboleth","country":"GB","title":"UFBA - Universidade Federal da Bahia","geo":{"lat":"-10","lon":"-55"}},{"entityID":"https://cafe.ufop.br/idp/shibboleth","country":"GB","title":"UFOP - Universidade Federal de Ouro Preto","geo":{"lat":"-10","lon":"-55"}},{"entityID":"https://cafe.ufpa.br/idp/shibboleth","country":"GB","title":"UFPA - Universidade Federal do Para","geo":{"lat":"-10","lon":"-55"}},{"entityID":"https://cafe.ufra.edu.br/idp/shibboleth","country":"GB","title":"UFRA - Universidade  Federal Rural da Amazonia","geo":{"lat":"-10","lon":"-55"}},{"entityID":"https://cafe.unicentro.br/idp/shibboleth","country":"GB","title":"UNICENTRO - Universidade Estadual do Centro-Oeste do Parana","geo":{"lat":"-25.3833","lon":"-51.45"}},{"entityID":"https://cafe.unifap.br/idp/shibboleth","country":"GB","title":"UNIFAP -  Universidade Federal do Amapa","geo":{"lat":"-10","lon":"-55"}},{"entityID":"https://cafe.unifran.br/idp/shibboleth","country":"GB","title":"UNIFRAN - Universidade de Franca","geo":{"lat":"-10","lon":"-55"}},{"entityID":"https://cafe.unisc.br/idp/shibboleth","country":"GB","title":"UNISC - Universidade de Santa Cruz do Sul","geo":{"lat":"-15.5833","lon":"-56.0833"}},{"entityID":"https://cafe.upf.br/idp/shibboleth","country":"GB","title":"UPF - Universidade de Passo Fundo","geo":{"lat":"-10","lon":"-55"}},{"entityID":"https://cafe.uscs.edu.br/idp/shibboleth","country":"GB","title":"USCS - Universidade Municipal de Sao Caetano do Sul","geo":{"lat":"-10","lon":"-55"}},{"entityID":"https://cafe01.unicamp.br/idp/shibboleth","country":"GB","title":"UNICAMP - UNIVERSIDADE ESTADUAL DE CAMPINAS","geo":{"lat":"-22.9","lon":"-47.0833"}},{"entityID":"https://cafe1.ufes.br/idp/shibboleth","country":"GB","title":"UFES - Universidade Federal do Espirito Santo","geo":{"lat":"-20.3167","lon":"-40.35"}},{"entityID":"https://cafernp.insa.gov.br/idp/shibboleth","country":"GB","title":"INSA - Instituto Nacional do Semiarido","geo":{"lat":"-10","lon":"-55"}},{"entityID":"https://cafetools.ufpi.br/idp/shibboleth","country":"GB","title":"UFPI - Universidade Federal do Piaui","geo":{"lat":"-5.0833","lon":"-42.8167"}},{"entityID":"https://capuccino.iff.edu.br/idp/shibboleth","country":"GB","title":"IFF - Instituto Federal Fluminense","geo":{"lat":"-10","lon":"-55"}},{"entityID":"https://capuccino.info.ufrn.br/idp/shibboleth","country":"GB","title":"UFRN - Universidade Federal do Rio Grande do Norte","geo":{"lat":"-12.9833","lon":"-38.5167"}},{"entityID":"https://cardshibidp.cardonald.ac.uk/shibboleth","country":"GB","title":"Glasgow Clyde College","geo":{"lat":"55.8404373","lon":"-4.3372158"}},{"entityID":"https://cas.ac-martinique.fr/idp/shibboleth","country":"GB","title":"Rectorat de la Martinique","geo":{"lat":"46","lon":"2"}},{"entityID":"https://cas.crous-lyon.fr/idp/shibboleth","country":"GB","title":"CROUS de Lyon","geo":{"lat":"45.7485","lon":"4.8467"}},{"entityID":"https://cas.cuni.cz/idp/shibboleth","country":"CZ","title":"Charles University in Prague","geo":{"lat":"50.0705102","lon":"14.4198844"},"icon":"cached/cb50a29b57c947481392d1a7ad4cb843f278c8ae"},{"entityID":"https://cas.educagri.fr/idp/shibboleth","country":"GB","title":"Educagri - Enseignement Agricole","geo":{"lat":"47.3167","lon":"5.0167"}},{"entityID":"https://cas.ent-etrs.net/idp/shibboleth","country":"GB","title":"Ecole des Transmissions - Cesson Su00e9vignu00e9","geo":{"lat":"48.119472","lon":"-1.602923"}},{"entityID":"https://cas.st-cyr.terre.defense.gouv.fr/idp/shibboleth","country":"GB","title":"Ecoles de Saint- Cyr Cou00ebtquidan","geo":{"lat":"47.946348","lon":"-2.144107"}},{"entityID":"https://cavle.org/shibboleth","country":"GB","title":"UniServity: CAVLE","geo":{"lat":"47.6801","lon":"-122.1206"}},{"entityID":"https://cerbere2.mines-douai.fr/idp/shibboleth","country":"GB","title":"Mines Douai","geo":{"lat":"50.3724","lon":"3.089"}},{"entityID":"https://cern.ch/login","country":"CH","title":"CERN","geo":[{"lat":"46.23304","lon":"6.05528"}],"icon":"cached/5247d0fde508c79645500a50823c6c9622eb40ee"},{"entityID":"https://comet.esher.ac.uk/shibboleth","country":"GB","title":"Esher College (Athens)","geo":{"lat":"51.3696161","lon":"-0.3656661"}},{"entityID":"https://coventry.ac.uk/idp","country":"GB","title":"Coventry University","geo":{"lat":"52.4061841","lon":"-1.5051919"}},{"entityID":"https://darlfam.darlington.ac.uk/shibboleth","country":"GB","title":"Darlington College","geo":{"lat":"54.53166","lon":"-1.54005"}},{"entityID":"https://dev-shibboleth.networcs.net/SSO/shibboleth","country":"GB","title":"Worcestershire Learning Gateway (Devshib 1.3)","geo":{"lat":"52.3","lon":"-1.9333"}},{"entityID":"https://dev2.webauth.soton.ac.uk/shibboleth","country":"GB","title":"University of Southampton (Dev 2.x)","geo":{"lat":"50.9","lon":"-1.4"}},{"entityID":"https://devidp.nottingham.ac.uk/idp/shibboleth","country":"GB","title":"University of Nottingham : Development","geo":{"lat":"52.967","lon":"-1.167"}},{"entityID":"https://dh.gov.uk/shibboleth","country":"GB","title":"Department of Health (England)","geo":{"lat":"51.4634741","lon":"0.006265"}},{"entityID":"https://dialect.liv-coll.ac.uk/idp/shibboleth","country":"GB","title":"The City of Liverpool College","geo":{"lat":"53.41266","lon":"-2.91227"}},{"entityID":"https://dimorus.intranet.ifrj.edu.br/idp/shibboleth","country":"GB","title":"IFRJ - Instituto Federal do Rio de Janeiro","geo":{"lat":"-10","lon":"-55"}},{"entityID":"https://dlib-brewdog.ucs.ed.ac.uk/idp/shibboleth","country":"GB","title":"dlib-brewdog test IdP","geo":{"lat":"55.95","lon":"-3.2"},"icon":"cached/b3f9a390a5b5cc28d5e35ff95e5d90f5de492963"},{"entityID":"https://dlib-jiscidp.edina.ac.uk/idp/shibboleth","country":"GB","title":"JISC Executive New","geo":{"lat":"55.95","lon":"-3.2"},"icon":"cached/e41e07f30449b2dd7025fff0644f09ae9657dfda"},{"entityID":"https://dlib-monidp.edina.ac.uk/idp/shibboleth","country":"GB","title":"dlib-monidp Test IdP","geo":{"lat":"55.95","lon":"-3.2"}},{"entityID":"https://dlib-schoolsidp.edina.ac.uk/idp/shibboleth","country":"GB","title":"EDINA services for schools","geo":{"lat":"55.95","lon":"-3.2"}},{"entityID":"https://dlib-skaill.ucs.ed.ac.uk/idp/shibboleth","country":"GB","title":"Skaill Test IdP","geo":{"lat":"55.95","lon":"-3.2"}},{"entityID":"https://dlib-tirnanog.ucs.ed.ac.uk/idp/shibboleth","country":"GB","title":"Tirnanog Test IdP","geo":{"lat":"55.95","lon":"-3.2"}},{"entityID":"https://dmz-shib-dg-01.dmz.roehampton.ac.uk/idp/shibboleth","country":"GB","title":"University of Roehampton","geo":{"lat":"51.456486","lon":"-0.2438063"},"icon":"cached/a535cb05e76c354e331c3e8b1e3d65f9988ce4be"},{"entityID":"https://dourado.ufs.br/idp/shibboleth","country":"GB","title":"UFS - Universidade Federal de Sergipe","geo":{"lat":"-11.0167","lon":"-37.2"}},{"entityID":"https://du-idp.lanet.lv","country":"GB","title":"Daugavpils University - DU IDP","geo":{"lat":"55.874736","lon":"26.536179"}},{"entityID":"https://duck-dev.bournemouth.ac.uk/oala/metadata","country":"GB","title":"Bournemouth University_DEV","geo":{"lat":"50.7216814","lon":"-1.8785266"}},{"entityID":"https://edugate.itb.ie/idp/shibboleth","country":"IE","title":"Institute of Technology Blanchardstown","geo":[{"lat":"53.40572644015631","lon":"-6.378046274185181"}],"icon":"cached/b0b55f746375fd9dfc52e32644d8310f97d7707c"},{"entityID":"https://edulidp01.hants.gov.uk/idp/shibboleth","country":"GB","title":"Hampshire County Council","geo":{"lat":"51.063466","lon":"-1.319239"}},{"entityID":"https://eduroam.frizerska.si","country":"GB","title":"SREDNJA FRIZERSKA u0160OLA LJUBLJANA","icon":"cached/9763c83e1219a0e0398bc04b0e5a3bab9c79c535"},{"entityID":"https://eka-idp.lanet.lv","country":"GB","title":"The University College of Economics and Culture- EKA IDP","geo":{"lat":"57","lon":"25"}},{"entityID":"https://el-shib.redbridge-college.ac.uk/idp/shibboleth","country":"GB","title":"Redbridge College","geo":{"lat":"51.58861","lon":"0.0823976"}},{"entityID":"https://elibrary.exeter.ac.uk/idp/shibboleth","country":"GB","title":"University of Exeter","geo":{"lat":"50.7344614","lon":"-3.5356679"}},{"entityID":"https://eliot.isae.fr/idp/shibboleth","country":"GB","title":"ISAE Institut Supu00e9rieur de l'Au00e9ronautique et de l'Espace","geo":{"lat":"43.5995","lon":"1.4332"}},{"entityID":"https://encecafe.ibge.gov.br/idp/shibboleth","country":"GB","title":"ENCE(IBGE) - Escola Nacional de Ciencias Estatisticas","geo":{"lat":"-10","lon":"-55"}},{"entityID":"https://eresources.city.ac.uk/oala/metadata","country":"GB","title":"City University London (IT log-in)","geo":{"lat":"51.5","lon":"-0.13"}},{"entityID":"https://fam.carmel.ac.uk/idp/shibboleth","country":"GB","title":"Carmel College","geo":{"lat":"53.45","lon":"-2.7333"}},{"entityID":"https://fam.salford.ac.uk/oala/metadata","country":"GB","title":"University of Salford (Network Username)","geo":{"lat":"53.4833","lon":"-2.2667"}},{"entityID":"https://febe.ufpe.br/idp/shibboleth","country":"GB","title":"UFPE - Universidade Federal de Pernambuco","geo":{"lat":"-8.05","lon":"-34.9"}},{"entityID":"https://fed.id.univ-bordeaux.fr/idp_ubx/shibboleth","country":"GB","title":"CUEA - Communautu00e9 d'universitu00e9s et d'u00e9tablissements d'Aquitaine","geo":{"lat":"44.8352915","lon":"-0.5260401"}},{"entityID":"https://fedauth.london.edu/oala/metadata","country":"US","title":"London Business School","geo":{"lat":"51.5142","lon":"-0.0931"}},{"entityID":"https://federacao.ifpi.edu.br/idp/shibboleth","country":"GB","title":"IFPI - Instituto Federal do Piaui","geo":{"lat":"-10","lon":"-55"}},{"entityID":"https://federatedaccess.hrc.ac.uk/idp/shibboleth","country":"GB","title":"Hertford Regional College - Test","geo":{"lat":"51.795756","lon":"-0.081157"}},{"entityID":"https://federation-identite.univ-paris13.fr/idp/shibboleth","country":"GB","title":"Universitu00e9 Paris 13","geo":{"lat":"48.856968","lon":"2.32974"}},{"entityID":"https://federation.agrocampus-ouest.fr/idp/shibboleth","country":"GB","title":"AGROCAMPUS OUEST","geo":{"lat":"47.4791574","lon":"-0.6058392"}},{"entityID":"https://federation.bretagne.iufm.fr/idp/shibboleth","country":"GB","title":"ESPE de Bretagne","geo":{"lat":"48.516366","lon":"-2.776716"}},{"entityID":"https://federation.citylit.ac.uk/shibboleth","country":"GB","title":"City Lit","geo":{"lat":"53.327117","lon":"-1.3115739"}},{"entityID":"https://federation.crous-lille.fr/idp/shibboleth","country":"GB","title":"CROUS Lille","geo":{"lat":"48.86","lon":"2.35"}},{"entityID":"https://federation.esiee.fr/idp/shibboleth","country":"GB","title":"ESIEE Paris","geo":{"lat":"48.839647","lon":"2.5839629"}},{"entityID":"https://federation.ined.fr/idp/shibboleth","country":"GB","title":"INED - Institut National d'Etudes Du00e9mographiques","geo":{"lat":"48.5226","lon":"2.6514"}},{"entityID":"https://federation.sciences-po.fr/idp/shibboleth","country":"GB","title":"Sciences Po Paris","geo":{"lat":"48.8537882","lon":"2.3291389"}},{"entityID":"https://federation.u-pem.fr/idp/shibboleth","country":"GB","title":"Universitu00e9 Paris-Est Marne-la-Vallu00e9e","geo":{"lat":"48.3226","lon":"2.8859"}},{"entityID":"https://federation.unimes.fr/idp/shibboleth","country":"GB","title":"Universitu00e9 de Nimes","geo":{"lat":"43.821913","lon":"4.3678626"}},{"entityID":"https://federation.upf.pf/idp/shibboleth","country":"GB","title":"Universitu00e9 de Polynu00e9sie franu00e7aise","geo":{"lat":"-15","lon":"-140"}},{"entityID":"https://federation.utbm.fr/idp/shibboleth","country":"GB","title":"Universitu00e9 de Technologie de Belfort-Montbu00e9liard","geo":{"lat":"47.4961904","lon":"6.8047545"}},{"entityID":"https://federation2.univ-brest.fr/idp/shibboleth","country":"GB","title":"Universitu00e9 de Bretagne Occidentale","geo":{"lat":"48.3995844","lon":"-4.502004"}},{"entityID":"https://federation2.univ-perp.fr/idp/shibboleth","country":"GB","title":"Universitu00e9 de Perpignan Via Domitia","geo":{"lat":"42.6821739","lon":"2.8988556"}},{"entityID":"https://federationrenater.univ-montp2.fr/idp/shibboleth","country":"GB","title":"Universitu00e9 de Montpellier 2","geo":{"lat":"43.6118867","lon":"3.8763752"}},{"entityID":"https://fim-hn-02-idp.orion.education.fr","country":"GB","title":"MINISTERE DE L'EDUCATION NATIONALE - HUB HN02","geo":{"lat":"48.86","lon":"2.35"}},{"entityID":"https://franklin-shib01.franklin.ac.uk/idp/shibboleth","country":"GB","title":"Franklin College, Grimsby","geo":{"lat":"53.55455","lon":"-0.10659"}},{"entityID":"https://garr-idp-prod.irccs.garr.it/idp/shibboleth","country":"GB","title":"IDP in the Cloud Project (GARR)","geo":{"lat":"42.8333","lon":"12.8333"},"icon":"cached/4bc3a36411735bca5916b7eb190ac3f07658af5d"},{"entityID":"https://gateway.ncl.ac.uk/idp/shibboleth","country":"GB","title":"Newcastle University","geo":{"lat":"54.9812936","lon":"-1.6155806"},"icon":"cached/551e939ae1161f96038cbbfeb6cf4fe9fcd35b6c"},{"entityID":"https://gcidp.gloscol.ac.uk/shibboleth","country":"GB","title":"Gloucestershire College","geo":{"lat":"51.9058532","lon":"-2.0797094"}},{"entityID":"https://gidp.geant.net","country":"GB","title":"GEANT Identity Provider","geo":{"lat":"51.5","lon":"-0.13"},"icon":"cached/a45f4e38f38e6bb226018b71e742f91d1317023c"},{"entityID":"https://gihidentity01.ihs.se/idp/shibboleth","country":"SE","title":"The Swedish School of Sport and Health Sciences","geo":[{"lat":"59.3467350","lon":"18.0811920"}],"icon":"cached/0de1cc04a91d3f3ec95b77a35ef2a2e2422f3a8f"},{"entityID":"https://gn-vho.grnet.gr/idp/shibboleth","country":"GR","title":"GRNET Virtual Home Organization (VHO) for Gu00c9ANT","geo":{"lat":"37.9833","lon":"23.7333"}},{"entityID":"https://harper-adams.ac.uk/oala/metadata","country":"GB","title":"Harper Adams University","geo":{"lat":"52.7795643","lon":"-2.4270058"}},{"entityID":"https://hbidp.hb.se/idp/shibboleth","country":"SE","title":"University of Boru00e5s","geo":[{"lat":"57.724368","lon":"12.939918"}],"icon":"cached/3223e36c0381226403968f0bf2b83c3a2485469f"},{"entityID":"https://hefce-shib.hefce.ac.uk/idp/shibboleth","country":"GB","title":"Higher Education Funding Council for England","geo":{"lat":"54","lon":"-2"}},{"entityID":"https://hereford.ac.uk/oala/metadata","country":"GB","title":"Hereford Sixth Form College OALA","geo":{"lat":"52.05","lon":"-2.7167"}},{"entityID":"https://hermes.kendal.ac.uk/shibboleth","country":"GB","title":"Kendal College","geo":{"lat":"54.31757","lon":"-2.74657"}},{"entityID":"https://hscshib1.qub.ac.uk/idp/shibboleth","country":"GB","title":"DHSSPS: honni-HSC","geo":{"lat":"54.5833","lon":"-5.9333"}},{"entityID":"https://ibook.conel.ac.uk/idp/shibboleth","country":"GB","title":"The College of Haringey, Enfield and North East London","geo":{"lat":"51.613964","lon":"-0.067307"}},{"entityID":"https://id.auf.org/idp/saml2/metadata","country":"GB","title":"Agence universitaire de la Francophonie (AUF)","geo":{"lat":"60","lon":"-95"}},{"entityID":"https://id.ucly.fr/idp/shibboleth","country":"GB","title":"Universitu00e9 Catholique de Lyon","geo":{"lat":"45.7570451","lon":"4.8290064"}},{"entityID":"https://id.vse.cz/idp/shibboleth","country":"CZ","title":"University of Economics, Prague","geo":{"lat":"50.0878114","lon":"14.4204598"},"icon":"cached/52ed035c7e9d3b5f819d6c56b6cbdde290231827"},{"entityID":"https://idea.ifc.cnr.it/idp/shibboleth","country":"GB","title":"CNR Institute of Clinical Physiology","geo":{"lat":"43.7167","lon":"10.3833"}},{"entityID":"https://idem-idp.imtlucca.it/idp/shibboleth","country":"GB","title":"IMT Institute for Advanced Studies Lucca","geo":{"lat":"42.8333","lon":"12.8333"},"icon":"cached/fcbb86c739cba5e9b82837384acbd97ac81c3abf"},{"entityID":"https://idem.ced.inaf.it/idp/shibboleth","country":"GB","title":"National Institute for Astrophysics - INAF","geo":{"lat":"39.3692973","lon":"17.1257935"},"icon":"cached/e68e721ed2ba8f6b7a6df9deb405509c8d915c05"},{"entityID":"https://idem.univpm.it/idp/shibboleth","country":"GB","title":"Universita' Politecnica delle Marche","geo":{"lat":"43.6173916","lon":"13.5132007"}},{"entityID":"https://idemfero.units.it/idp/shibboleth","country":"GB","title":"University of Trieste","geo":{"lat":"45.6590754","lon":"13.7951852"},"icon":"cached/4078efcdaf79b46de112bb4122dd22c21c674e8b"},{"entityID":"https://ident-shib.ensc-rennes.fr/idp/shibboleth","country":"GB","title":"Ecole Nationale Supu00e9rieure de Chimie de Rennes","geo":{"lat":"48.0833","lon":"-1.6833"}},{"entityID":"https://ident-shib.sciencespo-rennes.fr/idp/shibboleth","country":"GB","title":"Sciences Po Rennes","geo":{"lat":"48.0833","lon":"-1.6833"}},{"entityID":"https://ident.ensta-bretagne.fr/idp/shibboleth","country":"GB","title":"ENSTA Bretagne - Ecole Nationale Supu00e9rieure des Techniques Avancu00e9es","geo":{"lat":"48.3908","lon":"-4.4862"}},{"entityID":"https://ident.ensta.fr/idp/shibboleth","country":"GB","title":"ENSTA Paristech - Ecole Nationale Supu00e9rieure de Techniques Avancu00e9es","geo":{"lat":"48.8667","lon":"2.3333"}},{"entityID":"https://ident.groupe-esa.com/idp/shibboleth","country":"GB","title":"Ecole Supu00e9rieure d'Agriculture d'Angers","geo":{"lat":"48.86","lon":"2.35"}},{"entityID":"https://identites.ec-lyon.fr/idp/shibboleth","country":"GB","title":"Ecole Centrale de Lyon","geo":{"lat":"45.7838596","lon":"4.7691899"}},{"entityID":"https://identites.enim.fr/idp/","country":"GB","title":"ENIM","geo":{"lat":"48.8507076","lon":"2.3072022"}},{"entityID":"https://identites.ensea.fr/idp/shibboleth","country":"GB","title":"ENSEA","geo":{"lat":"49.0390878","lon":"2.0709511"}},{"entityID":"https://identities.univ-jfc.fr/idp/prod","country":"GB","title":"CUFR Jean-Franu00e7ois Champollion","geo":{"lat":"45.4287813","lon":"6.0049203"}},{"entityID":"https://identity.istat.it/idp/shibboleth","country":"GB","title":"ISTAT","geo":{"lat":"41.9","lon":"12.4833"}},{"entityID":"https://identity.mdh.se/idp/shibboleth","country":"SE","title":"Mu00e4lardalen University","geo":[{"lat":"59.6186","lon":"16.5407"},{"lat":"59.3716","lon":"16.5085"}],"icon":"cached/9500f74cb0375a325018df489d13fd730ba27ccf"},{"entityID":"https://idp-cafe.ifrr.edu.br/idp/shibboleth","country":"GB","title":"IFRR - Instituto Federal de Roraima","geo":{"lat":"-10","lon":"-55"}},{"entityID":"https://idp-cafe.unir.br/idp/shibboleth","country":"GB","title":"UNIR - Universidade Federal de Rondonia","geo":{"lat":"-10","lon":"-55"}},{"entityID":"https://idp-css.irccs.garr.it/idp/shibboleth","country":"GB","title":"IRCCS Casa Sollievo della Sofferenza Research Hospital","geo":{"lat":"42.8333","lon":"12.8333"},"icon":"cached/4a0cc8782ddc12ca16ee137cefbe2718c4c06ed9"},{"entityID":"https://idp-dev.bangor.ac.uk/shibboleth","country":"GB","title":"Bangor University: Development","geo":{"lat":"44.8011821","lon":"-68.7778138"},"icon":"cached/98f46c856df2c192fb71a881b158e4fe68504da1"},{"entityID":"https://idp-dev.cardiff.ac.uk/idp/shibboleth","country":"GB","title":"Cardiff University (Test - Dev)","geo":{"lat":"51.4813069","lon":"-3.1804979"},"icon":"cached/7cdff72279522f4a9046db6ad1b62d2b4fa9f814"},{"entityID":"https://idp-dev.sussex.ac.uk/idp/shibboleth","country":"GB","title":"University of Sussex (development)","geo":{"lat":"50.8624405","lon":"-0.0803649"},"icon":"cached/9ea6ce211675f0e1ed4f55f7899ab4c2534f7204"},{"entityID":"https://idp-dgnocchi.irccs.garr.it/idp/shibboleth","country":"GB","title":"IRCCS Fondazione Don Carlo Gnocchi Onlus","geo":{"lat":"42.8333","lon":"12.8333"},"icon":"cached/f957614810e5cbb92a1f320ccc5e2d0d4d48c5f6"},{"entityID":"https://idp-ensr.ens-rennes.fr/idp/shibboleth","country":"GB","title":"ENS Rennes","geo":{"lat":"48.86","lon":"2.35"}},{"entityID":"https://idp-etu.crous-grenoble.fr/idp/shibboleth","country":"GB","title":"CROUS Grenoble - u00e9tudiants","geo":{"lat":"45.1667","lon":"5.7167"}},{"entityID":"https://idp-iov.irccs.garr.it/idp/shibboleth","country":"GB","title":"Istituto Oncologico Veneto - IOV IRCCS","geo":{"lat":"42.8333","lon":"12.8333"},"icon":"cached/454c85256e73362bde64aa55a82c5c37db6096a4"},{"entityID":"https://idp-oasi.irccs.garr.it/idp/shibboleth","country":"GB","title":"IRCCS Associazione Oasi Maria SS. Onlus","geo":{"lat":"42.833","lon":"12.833"},"icon":"cached/aa725f0cd661cfbdb6ddcbde6385f81e6dc1afdd"},{"entityID":"https://idp-preprod.cardiff.ac.uk/idp/shibboleth","country":"GB","title":"Cardiff University (Test - Preprod)","geo":{"lat":"51.4813069","lon":"-3.1804979"},"icon":"cached/7cdff72279522f4a9046db6ad1b62d2b4fa9f814"},{"entityID":"https://idp-sicilia.izs.garr.it/idp/shibboleth","country":"GB","title":"IZS Sicilia","geo":{"lat":"42.8333","lon":"12.8333"},"icon":"cached/0530b3de4595c9716298be73a1853cf945802008"},{"entityID":"https://idp-ssbar.beniculturali.garr.it/idp/shibboleth","country":"GB","title":"SSBAR - Soprintendenza Archeologica di Roma","geo":{"lat":"42.8333","lon":"12.8333"},"icon":"cached/bb313754763ce03dd36c0555d7cf6bf8da096959"},{"entityID":"https://idp-stellamaris.irccs.garr.it/idp/shibboleth","country":"GB","title":"IRCCS Fondazione Stella Maris","geo":{"lat":"42.8333","lon":"12.8333"},"icon":"cached/9ba5dffc803df3289235c7d6da8949261d2638b9"},{"entityID":"https://idp-test.brighton.ac.uk/shibboleth","country":"GB","title":"University of Brighton (Test)","geo":{"lat":"50.8333","lon":"-0.15"},"icon":"cached/f309d53bf57ad02f670358c4b1592da6d14f9fa6"},{"entityID":"https://idp-test.bsms.ac.uk/shibboleth","country":"GB","title":"Brighton and Sussex Medical School (Test)","geo":{"lat":"50.8333","lon":"-0.15"},"icon":"cached/9b86035a7ac4aaea783e516af778480cc7a70a4a"},{"entityID":"https://idp-test.lancs.ac.uk/idp/shibboleth","country":"GB","title":"Lancaster University (Test IdP)","geo":{"lat":"54.0667","lon":"-2.8333"}},{"entityID":"https://idp-test.londonmet.ac.uk/idp/shibboleth","country":"GB","title":"London Metropolitan University - Test","geo":{"lat":"51.5516062","lon":"-0.1107208"}},{"entityID":"https://idp-test.shibboleth.ox.ac.uk/shibboleth-idp","country":"GB","title":"University of Oxford Test IdP","geo":{"lat":"51.75","lon":"-1.25"}},{"entityID":"https://idp-test.shu.ac.uk/idp/shibboleth","country":"GB","title":"Sheffield Hallam University (TEST ONLY)","geo":{"lat":"53.381129","lon":"-1.470085"},"icon":"cached/cae8dd253c70b38891b257c96fcdbf8b56763430"},{"entityID":"https://idp-test.ucs.ed.ac.uk/idp/shibboleth","country":"GB","title":"University of Edinburgh: V2 TEST","geo":{"lat":"55.95","lon":"-3.2"}},{"entityID":"https://idp-test.warwick.ac.uk/idp/shibboleth","country":"GB","title":"University of Warwick (Test IdP - do not use)","geo":{"lat":"52.2833","lon":"-1.5833"}},{"entityID":"https://idp-unito-prod.cineca.it/idp/shibboleth","country":"GB","title":"University of Turin","geo":{"lat":"45.0695618","lon":"7.6889733"},"icon":"cached/adf2cadef925e99f4f52f5e407a428fafe947cf4"},{"entityID":"https://idp.aai.arnes.si/idp/20090116","country":"GB","title":"ARNES","geo":{"lat":"46.0553","lon":"14.5144"},"icon":"cached/a18cbaa38d2eb6685fadbc2f082c29a4f024339e"},{"entityID":"https://idp.abcolstudents.ac.uk/shibboleth","country":"GB","title":"North East Scotland College","geo":{"lat":"57.1646803","lon":"-2.0994648"}},{"entityID":"https://idp.accross.ac.uk/shibboleth","country":"GB","title":"Accrington & Rossendale College","geo":{"lat":"53.7","lon":"-2.3333"}},{"entityID":"https://idp.aco.net/idp/shibboleth","country":"GB","title":"ACOnet","geo":[{"lat":"48.2132234","lon":"16.3581464"}],"icon":"cached/b1542caa0f26d4f4a57e12f9e2e062677fa1beba"},{"entityID":"https://idp.acs-schools.com/openathens","country":"GB","title":"ACS Schools","geo":{"lat":"51.3479728","lon":"-0.4013453"}},{"entityID":"https://idp.adamsmith.ac.uk/shibboleth","country":"GB","title":"Fife College (formerly Adam Smith College and Carnegie College)","geo":{"lat":"56.112542","lon":"-3.16212"}},{"entityID":"https://idp.admin.grnet.gr/idp/shibboleth","country":"GR","title":"Greek Research and Technology Network","geo":[{"lat":"37.98709500","lon":"23.765772"}],"icon":"cached/971b9010ff19e3187bb6d6433635d16931e18f2d"},{"entityID":"https://idp.aib.ac.uk/openathens","country":"GB","title":"Arts University Bournemouth (Athens)","geo":{"lat":"50.7414934","lon":"-1.8980885"}},{"entityID":"https://idp.altoncollege.ac.uk/idp/shibboleth","country":"GB","title":"Alton College","geo":{"lat":"51.1559778","lon":"-0.9764658"}},{"entityID":"https://idp.amersham.ac.uk/idp/shibboleth","country":"GB","title":"Amersham & Wycombe College","geo":{"lat":"51.668356","lon":"-0.590396"}},{"entityID":"https://idp.amue.fr/idp/saml2/metadata","country":"GB","title":"AMUE - Agence de Mutualisation des Universitu00e9s et Etablissements","geo":{"lat":"48.86","lon":"2.35"}},{"entityID":"https://idp.anglia.ac.uk/openathens","country":"GB","title":"Anglia Ruskin University","geo":{"lat":"52.2","lon":"0.1167"}},{"entityID":"https://idp.approval.glowscotland.org.uk/idp/shibboleth","country":"GB","title":"Glow Scotland (Approval)"},{"entityID":"https://idp.aquinas.ac.uk/shibboleth","country":"GB","title":"Aquinas College","geo":{"lat":"54","lon":"-2"}},{"entityID":"https://idp.arts.ac.uk/entity","country":"GB","title":"University of the Arts London","geo":{"lat":"51.5002","lon":"-0.1262"}},{"entityID":"https://idp.ashridge.org.uk/openathens","country":"GB","title":"Ashridge","geo":{"lat":"54","lon":"-2"}},{"entityID":"https://idp.athukfed.openathens.net/openathens","country":"GB","title":"Athens UK Federation Test Account","geo":{"lat":"37.9837155","lon":"23.7293097"}},{"entityID":"https://idp.athukfed2.openathens.net/openathens","country":"GB","title":"Eduserv athukfed2","geo":{"lat":"51.3794","lon":"-2.3656"}},{"entityID":"https://idp.athukfed3.openathens.net/openathens","country":"GB","title":"Eduserv athukfed3","geo":{"lat":"51.3794","lon":"-2.3656"}},{"entityID":"https://idp.athukfed4.openathens.net/openathens","country":"GB","title":"Eduserv athukfed4","geo":{"lat":"51.3794","lon":"-2.3656"}},{"entityID":"https://idp.athukfed5.openathens.net/openathens","country":"GB","title":"Eduserv athukfed5","geo":{"lat":"54","lon":"-2"}},{"entityID":"https://idp.atomwide.com/idp/shibboleth","country":"GB","title":"Atomwide Limited: USO","geo":{"lat":"54","lon":"-2"}},{"entityID":"https://idp.aucb.ac.uk/oala/metadata","country":"GB","title":"Arts University Bournemouth","geo":{"lat":"50.7167","lon":"-1.8833"}},{"entityID":"https://idp.ayrcoll.ac.uk/entity","country":"GB","title":"Ayr College","geo":{"lat":"55.4635688","lon":"-4.6331874"}},{"entityID":"https://idp.bangor.ac.uk/shibboleth","country":"GB","title":"Bangor University","geo":{"lat":"53.2260921","lon":"-4.1315153"},"icon":"cached/98f46c856df2c192fb71a881b158e4fe68504da1"},{"entityID":"https://idp.barkingcollege.ac.uk/shibbolethidp","country":"GB","title":"Barking & Dagenham College","geo":{"lat":"51.56032","lon":"0.17546"}},{"entityID":"https://idp.barkingdagenhamcollege.ac.uk/idp/shibboleth","country":"GB","title":"Barking & Dagenham College TEST","geo":{"lat":"51.56032","lon":"0.17546"}},{"entityID":"https://idp.barnetsouthgate.ac.uk/idp/shibboleth","country":"GB","title":"Barnet and Southgate College","geo":{"lat":"51.630592","lon":"-0.127919"}},{"entityID":"https://idp.barnfield.ac.uk/idp/shibboleth","country":"GB","title":"Barnfield College","geo":{"lat":"51.5","lon":"-0.13"}},{"entityID":"https://idp.barnsley.ac.uk/openathens","country":"GB","title":"Barnsley College","geo":{"lat":"53.5529326","lon":"-1.4812722"}},{"entityID":"https://idp.barton.ac.uk/openathens","country":"GB","title":"Barton Peveril College","geo":{"lat":"50.96117","lon":"-1.36501"}},{"entityID":"https://idp.bath.ac.uk/shibboleth","country":"GB","title":"University of Bath","geo":{"lat":"51.3799149","lon":"-2.3317084"},"icon":"cached/238bdabeb6651aeb3dfa6a5706e4593d946bd316"},{"entityID":"https://idp.bbk.ac.uk/openathens","country":"GB","title":"Birkbeck College","geo":{"lat":"51.353178","lon":"-0.775058"}},{"entityID":"https://idp.bbsrc.ac.uk/babraham","country":"GB","title":"Babraham Institute","geo":{"lat":"51.3794","lon":"-2.3656"}},{"entityID":"https://idp.bbsrc.ac.uk/bits","country":"GB","title":"BBSRC Bioscience IT Services (BITS)","geo":{"lat":"54","lon":"-2"}},{"entityID":"https://idp.bbsrc.ac.uk/compton","country":"GB","title":"IAH Compton","geo":{"lat":"51.3794","lon":"-2.3656"}},{"entityID":"https://idp.bbsrc.ac.uk/macaulay","country":"GB","title":"Macaulay Institute","geo":{"lat":"51.3794","lon":"-2.3656"}},{"entityID":"https://idp.bbsrc.ac.uk/moredun","country":"GB","title":"Moredun Research Institute","geo":{"lat":"54","lon":"-2"}},{"entityID":"https://idp.bbsrc.ac.uk/pirbright","country":"GB","title":"IAH Pirbright","geo":{"lat":"51.2934728","lon":"-0.6453226"}},{"entityID":"https://idp.bbsrc.ac.uk/rothamsted","country":"GB","title":"Rothamsted Research","geo":{"lat":"51.3794","lon":"-2.3656"}},{"entityID":"https://idp.bbsrc.ac.uk/scri","country":"GB","title":"Scottish Crop Research Institute","geo":{"lat":"51.3794","lon":"-2.3656"}},{"entityID":"https://idp.bbsrc.ac.uk/shibboleth","country":"GB","title":"BBSRC","geo":{"lat":"51.323891","lon":"-0.8475"}},{"entityID":"https://idp.bbsrc.ac.uk/swindon","country":"GB","title":"BBSRC Swindon Office","geo":{"lat":"51.3794","lon":"-2.3656"}},{"entityID":"https://idp.bbsrc.ac.uk/wyke","country":"GB","title":"North Wyke Research","geo":{"lat":"54","lon":"-2"}},{"entityID":"https://idp.bc.cas.cz/idp/shibboleth","country":"CZ","title":"Biology Centre AS CR","geo":{"lat":"49.75","lon":"15.5"},"icon":"cached/fe3465d0ebd8ed77325e6fd7abbd08b0bca49689"},{"entityID":"https://idp.bcot.ac.uk/entity","country":"GB","title":"Basingstoke College of Technology","geo":{"lat":"51.26168","lon":"-1.07967"}},{"entityID":"https://idp.bedford.ac.uk/shibboleth","country":"GB","title":"Bedford College","geo":{"lat":"52.1332099","lon":"-0.4680405"}},{"entityID":"https://idp.beds.ac.uk/entity","country":"GB","title":"University of Bedfordshire","geo":{"lat":"52.1412972","lon":"-0.4421412"}},{"entityID":"https://idp.bexley.ac.uk/shibboleth","country":"GB","title":"Bexley College","geo":{"lat":"51.408829","lon":"0.174997"}},{"entityID":"https://idp.bham.ac.uk/shibboleth","country":"GB","title":"University of Birmingham","geo":{"lat":"52.4503735","lon":"-1.9303823"},"icon":"cached/19efca017f7c44d1c0499682d7402c9b669b74da"},{"entityID":"https://idp.bhasvic.ac.uk/entity","country":"GB","title":"Brighton Hove & Sussex 6th Form College","geo":{"lat":"51.3794","lon":"-2.3656"}},{"entityID":"https://idp.bilborough.ac.uk/openathens","country":"GB","title":"Bilborough College","geo":{"lat":"52.96627","lon":"-1.23837"}},{"entityID":"https://idp.bishopb-college.ac.uk/shibboleth","country":"GB","title":"Bishop Burton College","geo":{"lat":"53.85189","lon":"-0.51187"}},{"entityID":"https://idp.bishopg.ac.uk/shibboleth","country":"GB","title":"Bishop Grosseteste University","geo":{"lat":"53.2438852","lon":"-0.5361846"}},{"entityID":"https://idp.blackburn.ac.uk/entity","country":"GB","title":"Blackburn College","geo":{"lat":"53.7483675","lon":"-2.4886429"}},{"entityID":"https://idp.boltoncc.ac.uk/shibboleth","country":"GB","title":"Bolton College","geo":{"lat":"53.5833","lon":"-2.4333"}},{"entityID":"https://idp.borderscollege.ac.uk/idp/shibboleth","country":"GB","title":"Borders College","geo":{"lat":"55.574105","lon":"-2.666469"}},{"entityID":"https://idp.bournemouth.ac.uk/oala/metadata","country":"GB","title":"Bournemouth University","geo":{"lat":"50.7236911","lon":"-1.8662055"}},{"entityID":"https://idp.bournville.ac.uk/idp/shibboleth","country":"GB","title":"Bournville College of Further Education","geo":{"lat":"52.4167","lon":"-1.9167"}},{"entityID":"https://idp.bpc.ac.uk/idp/shibboleth","country":"GB","title":"Bournemouth and Poole College","geo":{"lat":"50.7414934","lon":"-1.8980885"}},{"entityID":"https://idp.bppuc.com/shibboleth","country":"GB","title":"BPP University","geo":{"lat":"54","lon":"-2"}},{"entityID":"https://idp.brad.ac.uk/shibboleth","country":"GB","title":"University of Bradford (do not use)","geo":{"lat":"53.7914477","lon":"-1.7641408"}},{"entityID":"https://idp.braidense.it/simplesaml/saml2/idp/metadata.php","country":"GB","title":"Biblioteca Nazionale Braidense","geo":{"lat":"45.4719829","lon":"9.18806"}},{"entityID":"https://idp.bridgend.ac.uk/shibboleth","country":"GB","title":"Bridgend College","geo":{"lat":"51.500714","lon":"-3.571205"}},{"entityID":"https://idp.brighton.ac.uk/shibboleth","country":"GB","title":"University of Brighton","geo":{"lat":"50.8241077","lon":"-0.1357716"},"icon":"cached/594d9e141e4e254d983f23a93633cbf97edef271"},{"entityID":"https://idp.bris.ac.uk/shibboleth","country":"GB","title":"University of Bristol","geo":{"lat":"51.4575182","lon":"-2.6023459"}},{"entityID":"https://idp.brock.ac.uk/entity","country":"GB","title":"Brockenhurst College","geo":{"lat":"50.82203","lon":"-1.57173"}},{"entityID":"https://idp.bromley.ac.uk/shibboleth","country":"GB","title":"Bromley College of Further and Higher Education","geo":{"lat":"54","lon":"-2"}},{"entityID":"https://idp.brookehouse.ac.uk/openathens","country":"GB","title":"Bsix Brooke House Sixth Form College","geo":{"lat":"51.3794","lon":"-2.3656"}},{"entityID":"https://idp.brookes.ac.uk/idp/shibboleth","country":"GB","title":"Oxford Brookes University","geo":{"lat":"51.7520209","lon":"-1.2577263"}},{"entityID":"https://idp.brookes.ac.uk/shibboleth","country":"GB","title":"Oxford Brookes University (old)","geo":{"lat":"51.7542666","lon":"-1.2227"}},{"entityID":"https://idp.brooklands.ac.uk/idp/shibboleth","country":"GB","title":"Brooklands College","geo":{"lat":"51.5","lon":"-0.13"}},{"entityID":"https://idp.brooklands.ac.uk/shibboleth","country":"GB","title":"Brooklands College (Athens)","geo":{"lat":"54.5605392","lon":"-6.0177722"}},{"entityID":"https://idp.brunel.ac.uk/entity","country":"GB","title":"Brunel University (New)","geo":{"lat":"51.5","lon":"-0.13"},"icon":"cached/e5e566ee3e553557dee50f5fb7b22b9fd156a064"},{"entityID":"https://idp.bsms.ac.uk/shibboleth","country":"GB","title":"Brighton and Sussex Medical School","geo":{"lat":"50.8333","lon":"-0.15"},"icon":"cached/2216c433a293420dfca1752c5637fe3a6020e06d"},{"entityID":"https://idp.bth.se/idp/shibboleth","country":"SE","title":"Blekinge Institute of Technology - Personnel","geo":{"lat":"56.143109","lon":"15.3666703"}},{"entityID":"https://idp.bucks.ac.uk/entity","country":"GB","title":"Buckinghamshire New University","geo":{"lat":"51.6337949","lon":"-0.5423292"}},{"entityID":"https://idp.bufvc.ac.uk/shibboleth","country":"GB","title":"British Universities Film & Video Council","geo":{"lat":"54","lon":"-2"}},{"entityID":"https://idp.cadcol.ac.uk/idp/shibboleth","country":"GB","title":"Cadbury Sixth Form College","geo":{"lat":"50.8333","lon":"-3.55"}},{"entityID":"https://idp.calderdale.ac.uk/shibboleth","country":"GB","title":"Calderdale College","geo":{"lat":"53.7420418","lon":"-1.995269"}},{"entityID":"https://idp.cambria.ac.uk/oala/metadata","country":"GB","title":"Coleg Cambria","geo":{"lat":"51.5","lon":"-0.13"}},{"entityID":"https://idp.cambria.ac.uk/openathens","country":"GB","title":"Coleg Cambria (formerly for Deeside College)","geo":{"lat":"51.3794","lon":"-2.3656"}},{"entityID":"https://idp.cambridgeimaging.co.uk/entity","country":"GB","title":"Cambridge Imaging Systems (test only)","geo":{"lat":"42.3736158","lon":"-71.1097335"}},{"entityID":"https://idp.camre.ac.uk/shibboleth","country":"GB","title":"Cambridge Regional College","geo":{"lat":"52.23348","lon":"0.13692"}},{"entityID":"https://idp.canarie.ca/idp/shibboleth","country":"CA","title":"Canada's Advanced Research and Innovation Network","geo":{"lat":"45.4167","lon":"-75.7"}},{"entityID":"https://idp.candi.ac.uk/idp/shibboleth","country":"GB","title":"City and Islington College","geo":{"lat":"51.5333","lon":"-0.1"}},{"entityID":"https://idp.canterbury.ac.uk/shibboleth","country":"GB","title":"Canterbury Christ Church University","geo":{"lat":"51.1527118","lon":"0.2417035"}},{"entityID":"https://idp.capes.gov.br/idp/shibboleth","country":"GB","title":"CAPES - Coordenacao de Aperfeicoamento de Pessoal de Nivel Superior","geo":{"lat":"-15.784","lon":"-47.917"}},{"entityID":"https://idp.cardiff.ac.uk/shibboleth","country":"GB","title":"Cardiff University","geo":[{"lat":"51.487626","lon":"-3.178638"}],"icon":"cached/113c52529a96b32866c3c651a7acbe66e266d03a"},{"entityID":"https://idp.cardinalnewman.ac.uk/idp/shibboleth","country":"GB","title":"Cardinal Newman College","geo":{"lat":"54","lon":"-2"}},{"entityID":"https://idp.carnegiecollege.ac.uk/shibboleth","country":"GB","title":"Carnegie College","geo":{"lat":"53.8281873","lon":"-1.589922"}},{"entityID":"https://idp.carshalton.ac.uk/shibboleth","country":"GB","title":"Carshalton College","geo":{"lat":"51.37157","lon":"-0.16633"}},{"entityID":"https://idp.ccad.ac.uk/shibboleth","country":"GB","title":"Cleveland College of Art and Design","geo":{"lat":"54","lon":"-2"}},{"entityID":"https://idp.cced.cranfield.ac.uk/openathens","country":"GB","title":"Cranfield University SoM Executive Development","geo":{"lat":"54","lon":"-2"}},{"entityID":"https://idp.ccn.ac.uk/shibboleth","country":"GB","title":"City College Norwich","geo":{"lat":"52.625768","lon":"1.271047"}},{"entityID":"https://idp.cdd.ac.uk/shibboleth","country":"GB","title":"Conservatoire for Dance and Drama","geo":{"lat":"51.3794","lon":"-2.3656"}},{"entityID":"https://idp.cedia.org.ec/idp/shibboleth","country":"GB","title":"CEDIA - Consorcio Ecuatoriano para el desarrollo de Internet Avanzado","geo":{"lat":"-2.8833","lon":"-78.9833"}},{"entityID":"https://idp.central-glasgow.ac.uk/openathens","country":"GB","title":"Central College Glasgow","geo":{"lat":"55.8632066","lon":"-4.247807"}},{"entityID":"https://idp.centralsussex.ac.uk/shibboleth","country":"GB","title":"Central Sussex College","geo":{"lat":"51.3794","lon":"-2.3656"}},{"entityID":"https://idp.ceredigion.ac.uk/openathens","country":"GB","title":"Coleg Ceredigion","geo":{"lat":"52.0874217","lon":"-4.6566566"}},{"entityID":"https://idp.cereq.fr/idp/shibboleth","country":"GB","title":"CEREQ - Centre d'u00e9tudes et de recherches sur les qualifications","geo":{"lat":"48.86","lon":"2.35"}},{"entityID":"https://idp.chester.ac.uk/shibboleth","country":"GB","title":"University of Chester","geo":{"lat":"53.4166353","lon":"-2.5489568"}},{"entityID":"https://idp.chesterfield.ac.uk/shibboleth","country":"GB","title":"Chesterfield College","geo":{"lat":"53.263959","lon":"-1.357534"}},{"entityID":"https://idp.chichester.ac.uk/idp/shibboleth","country":"GB","title":"Chichester College","geo":{"lat":"50.8447726","lon":"-0.7738857"}},{"entityID":"https://idp.cirad.fr/idp/shibboleth","country":"GB","title":"CIRAD","geo":{"lat":"47.617615","lon":"1.3427518"}},{"entityID":"https://idp.cirencester.ac.uk/oala/metadata","country":"GB","title":"Cirencester Sixth Form College","geo":{"lat":"51.45","lon":"-2.5833"}},{"entityID":"https://idp.city.ac.uk/shibboleth","country":"GB","title":"City University London (Athens account log-in)","geo":{"lat":"51.5277551","lon":"-0.1026961"}},{"entityID":"https://idp.citybathcoll.ac.uk/oala/metadata","country":"GB","title":"City of Bath College","geo":{"lat":"51.3794","lon":"-2.3656"}},{"entityID":"https://idp.citybathcoll.ac.uk/shibboleth","country":"GB","title":"City of Bath College (old)","geo":{"lat":"51.379808","lon":"-2.3625895"}},{"entityID":"https://idp.cityofbristol.ac.uk/shibboleth","country":"GB","title":"City of Bristol College","geo":{"lat":"51.4525384","lon":"-2.5998796"}},{"entityID":"https://idp.cityofglasgowcollege.ac.uk/idp/shibboleth","country":"GB","title":"City of Glasgow College","geo":{"lat":"55.8333","lon":"-4.25"}},{"entityID":"https://idp.cityofglasgowcollege.ac.uk/openathens","country":"GB","title":"City of Glasgow College (Athens)","geo":{"lat":"55.8632066","lon":"-4.247807"}},{"entityID":"https://idp.citysun.ac.uk/shibboleth","country":"GB","title":"Sunderland College","geo":{"lat":"54.8976918","lon":"-1.3794725"}},{"entityID":"https://idp.cnous.fr/idp/shibboleth","country":"GB","title":"CNOUS","geo":{"lat":"46","lon":"2"}},{"entityID":"https://idp.cnwl.ac.uk/idp/shibboleth","country":"GB","title":"College North West London","geo":{"lat":"51.5517896","lon":"-0.2442953"}},{"entityID":"https://idp.coatbridge.ac.uk/entity","country":"GB","title":"New College Lanarkshire, Coatbridge","geo":{"lat":"55.8639557","lon":"-4.0163111"}},{"entityID":"https://idp.col-westanglia.ac.uk/openathens","country":"GB","title":"The College of West Anglia","geo":{"lat":"52.6018273","lon":"0.3744635"}},{"entityID":"https://idp.colchester.ac.uk/shibboleth","country":"GB","title":"Colchester Institute","geo":{"lat":"51.8935766","lon":"0.8891887"}},{"entityID":"https://idp.colchsfc.ac.uk/shibboleth","country":"GB","title":"The Sixth Form College, Colchester","geo":{"lat":"54","lon":"-2"}},{"entityID":"https://idp.coleg-powys.ac.uk/idp/shibboleth","country":"GB","title":"NPTC Group (former Coleg Powys users)","geo":{"lat":"52.238825","lon":"-3.376793"},"icon":"cached/d3c0f1dc8946cae5eddf81047696646d0427ffeb"},{"entityID":"https://idp.coleggwent.ac.uk/idp/shibboleth","country":"GB","title":"Coleg Gwent","geo":{"lat":"51.5","lon":"-0.13"}},{"entityID":"https://idp.colegsirgar.ac.uk/shibboleth","country":"GB","title":"Coleg Sir Gar","geo":{"lat":"51.8566796","lon":"-4.3283524"}},{"entityID":"https://idp.company.ja.net/idp/shibboleth","country":"GB","title":"Janet","geo":[{"lat":"51.57732","lon":"-1.31070"}],"icon":"cached/25e785a409b0afbdadbb3a482bc0698e8f5bc01e"},{"entityID":"https://idp.condorcet.be/idp/shibboleth","country":"GB","title":"HEPH-Condorcet","geo":{"lat":"50.8333","lon":"4"}},{"entityID":"https://idp.cornwall.ac.uk/shibboleth-idp","country":"GB","title":"Cornwall College","geo":{"lat":"50.2268325","lon":"-5.2758882"}},{"entityID":"https://idp.coulsdon.ac.uk/shibboleth","country":"GB","title":"Coulsdon Sixth Form College in Croydon","geo":{"lat":"51.3","lon":"-0.1167"}},{"entityID":"https://idp.courtauld.ac.uk/shibboleth","country":"GB","title":"Courtauld Institute of Art","geo":{"lat":"54","lon":"-2"}},{"entityID":"https://idp.cpe.fr/idp/shibboleth","country":"GB","title":"CPE Lyon","geo":{"lat":"45.7553259","lon":"4.821209"}},{"entityID":"https://idp.craven-college.ac.uk/shibboleth","country":"GB","title":"Craven College","geo":{"lat":"53.96409","lon":"-2.03562"}},{"entityID":"https://idp.craw.eu/idp/shibboleth","country":"GB","title":"CRA-W","geo":[{"lat":"50.5662","lon":"4.7247"}],"icon":"cached/39a8b9a2990871d2cd7186b51079f6dda2ccfa09"},{"entityID":"https://idp.crihan.fr/saml2/idp/metadata.php","country":"GB","title":"CRIHAN","geo":{"lat":"48.86","lon":"2.35"}},{"entityID":"https://idp.crous-antillesguyane.fr/idp/shibboleth","country":"GB","title":"CROUS Antilles-Guyane","geo":{"lat":"48.86","lon":"2.35"}},{"entityID":"https://idp.crous-besancon.fr/idp/shibboleth","country":"GB","title":"CROUS Besanu00e7on","geo":{"lat":"47.4946346","lon":"6.8017731"}},{"entityID":"https://idp.crous-caen.fr/idp/shibboleth","country":"GB","title":"CROUS Caen","geo":{"lat":"49.1972","lon":"-0.3268"}},{"entityID":"https://idp.crous-clermont.fr/idp/shibboleth","country":"GB","title":"CROUS Clermont-Ferrand","geo":{"lat":"45.7644891","lon":"3.0875722"}},{"entityID":"https://idp.crous-creteil.fr/idp/shibboleth","country":"GB","title":"CROUS Cru00e9teil","geo":{"lat":"48.86","lon":"2.35"}},{"entityID":"https://idp.crous-dijon.fr/idp/shibboleth","country":"GB","title":"CROUS Dijon - Personnels","geo":{"lat":"47.3167","lon":"5.0167"}},{"entityID":"https://idp.crous-grenoble.fr/idp/shibboleth","country":"GB","title":"CROUS Grenoble - Personnels","geo":{"lat":"45.188529","lon":"5.724524"}},{"entityID":"https://idp.crous-limoges.fr/idp/shibboleth","country":"GB","title":"CROUS de Limoges","geo":{"lat":"48.86","lon":"2.35"}},{"entityID":"https://idp.crous-montpellier.fr/idp/shibboleth","country":"GB","title":"CROUS Montpellier","geo":{"lat":"43.6109","lon":"3.8772"}},{"entityID":"https://idp.crous-nancy-metz.fr/idp/shibboleth","country":"GB","title":"CROUS Nancy-Metz Lorraine","geo":{"lat":"49.119666","lon":"6.176905"}},{"entityID":"https://idp.crous-nantes.fr/idp/shibboleth","country":"GB","title":"CROUS de Nantes","geo":{"lat":"48.86","lon":"2.35"}},{"entityID":"https://idp.crous-nice.fr/idp/shibboleth","country":"GB","title":"CROUS de Nice - Personnels","geo":{"lat":"43.85","lon":"7.05"}},{"entityID":"https://idp.crous-orleans-tours.fr/idp/shibboleth","country":"GB","title":"CROUS Orlu00e9ans-Tours - Personnels","geo":{"lat":"48.86","lon":"2.35"}},{"entityID":"https://idp.crous-paris.fr/idp/shibboleth","country":"GB","title":"CROUS Paris","geo":{"lat":"48.8447103","lon":"2.3503196"}},{"entityID":"https://idp.crous-poitiers.fr/idp/shibboleth","country":"GB","title":"CROUS de Poitiers","geo":{"lat":"46.5676899","lon":"0.3874557"}},{"entityID":"https://idp.crous-reims.fr/idp/shibboleth","country":"GB","title":"CROUS Reims","geo":{"lat":"49.25","lon":"4.0333"}},{"entityID":"https://idp.crous-rennes.fr/idp/shibboleth","country":"GB","title":"CROUS Rennes - Personnels","geo":{"lat":"48.86","lon":"2.35"}},{"entityID":"https://idp.crous-strasbourg.fr/idp/shibboleth","country":"GB","title":"CROUS Strasbourg","geo":{"lat":"48.6004","lon":"7.7874"}},{"entityID":"https://idp.croydon.ac.uk/shibboleth","country":"GB","title":"Croydon College","geo":{"lat":"51.389236","lon":"-0.110979"}},{"entityID":"https://idp.cs.cas.cz/idp/shibboleth","country":"CZ","title":"Institute of Computer Science Academy of Sciences of the Czech Republic","geo":{"lat":"49.75","lon":"15.5"},"icon":"cached/0a0448b21abe4e89d44fd543b6b932b3cbd7d309"},{"entityID":"https://idp.csc.fi/idp/shibboleth","country":"FI","title":"CSC - IT Center for Science Ltd.","geo":[{"lat":"64.2311008","lon":"27.7041552"},{"lat":"60.1785928","lon":"24.8332895"}],"icon":"cached/9906ad1eab40a0ab8df750958ff13399e9c4c70b"},{"entityID":"https://idp.csp.it/idp/shibboleth","country":"GB","title":"CSP - innovation in ICT","geo":{"lat":"43.55","lon":"10.317"},"icon":"cached/1e6a695b13d417abcc3490d4d907a5fb2149981a"},{"entityID":"https://idp.cssd.ac.uk/shibboleth","country":"GB","title":"Royal Central School of Speech and Drama","geo":{"lat":"54","lon":"-2"}},{"entityID":"https://idp.ctksfc.ac.uk/shibboleth","country":"GB","title":"Christ the King VI Form College","geo":{"lat":"54","lon":"-2"}},{"entityID":"https://idp.cue-lillenorddefrance.fr/shibboleth","country":"GB","title":"Communautu00e9 d'Universitu00e9s et d'Etablissements - Lille Nord de France","geo":{"lat":"50.633","lon":"3.0586"}},{"entityID":"https://idp.cumbria.ac.uk/idp/shibboleth","country":"GB","title":"University of Cumbria","geo":{"lat":"54.6060946","lon":"-3.5318066"}},{"entityID":"https://idp.cvgz.cas.cz/idp/shibboleth","country":"CZ","title":"Global Change Research Centre AS CR, v. v. i.","geo":{"lat":"49.75","lon":"15.5"},"icon":"cached/316a02028ca01d61c1e21655e331f431e2026f37"},{"entityID":"https://idp.cwc.ac.uk/idp/shibboleth","country":"GB","title":"City of Westminster College","geo":{"lat":"51.8","lon":"1.0333"}},{"entityID":"https://idp.cwc.ac.uk/openathens","country":"GB","title":"City of Westminster College (OPenAthens)","geo":{"lat":"51.521366","lon":"-0.174933"}},{"entityID":"https://idp.cyceron.fr:8443/idp/shibboleth","country":"GB","title":"Cyceron","geo":{"lat":"49.1811","lon":"-0.3712"}},{"entityID":"https://idp.dante.net/idp/shibboleth","country":"GB","title":"DANTE","geo":[{"lat":"52.191818","lon":"0.133772"}],"icon":"cached/c2349a7c1d14dfadc2704d6b43a110318eaaa26d"},{"entityID":"https://idp.derby-college.ac.uk/idp/shibboleth","country":"GB","title":"Derby College","geo":{"lat":"52.9162093","lon":"-1.4608752"}},{"entityID":"https://idp.dfn.de/idp/shibboleth","country":"DE","title":"German National Research and Education Network, DFN","geo":{"lat":"51","lon":"9"},"icon":"cached/96d287eaad09d71cd3b939c6b63174a5d8f3fea1"},{"entityID":"https://idp.dias.ie/idp/shibboleth","country":"IE","title":"Dublin Institute for Advanced Studies","geo":{"lat":"53.3331","lon":"-6.2489"},"icon":"cached/b8ba823cce4e169a7787879d77f000f26c8bc328"},{"entityID":"https://idp.dijon.iufm.fr/idp/shibboleth","country":"GB","title":"ESPE de Bourgogne - Dpt MEEF","geo":{"lat":"47.310287","lon":"5.0390786"}},{"entityID":"https://idp.dir.garr.it/idp/shibboleth","country":"GB","title":"GARR","geo":{"lat":"40.8","lon":"9.0167"}},{"entityID":"https://idp.dit.ie/idp/shibboleth","country":"IE","title":"Dublin Institute of Technology","geo":[{"lat":"53.3386922370051","lon":"-6.266900897026062"}],"icon":"cached/3a08eae64dcb9100f17c0a0d15d1e311de62a09c"},{"entityID":"https://idp.dkit.ie/idp/shibboleth","country":"IE","title":"Dundalk Institute of Technology","geo":[{"lat":"53.984667","lon":"-6.394150"}],"icon":"cached/5c271a5aa4ef8befb451344c2f6da4d449888e60"},{"entityID":"https://idp.dudleycol.ac.uk/openathens","country":"GB","title":"Dudley College","geo":{"lat":"52.51414","lon":"-2.09623"}},{"entityID":"https://idp.dumgal.ac.uk/openathens","country":"GB","title":"Dumfries and Galloway College (Athens)","geo":{"lat":"55.0690002","lon":"-3.6077796"}},{"entityID":"https://idp.dundee.ac.uk/shibboleth","country":"GB","title":"University of Dundee","geo":{"lat":"56.1108691","lon":"-3.1684698"},"icon":"cached/ca5a705779db0d551968ebe0dcd892a7b565eca8"},{"entityID":"https://idp.dunstable.ac.uk/openathens","country":"GB","title":"Central Bedfordshire College","geo":{"lat":"51.8775066","lon":"-0.4110904"}},{"entityID":"https://idp.eastridingcollege.ac.uk/shibboleth","country":"GB","title":"East Riding College","geo":{"lat":"53.915066","lon":"-0.176449"}},{"entityID":"https://idp.ebi.ac.uk/idp/shibboleth","country":"GB","title":"European Molecular Biology Laboratory - EBI","geo":{"lat":"52.2","lon":"0.1167"},"icon":"cached/11e1a7979e4fbc8ee828f4a5e0e770e63f44227f"},{"entityID":"https://idp.ec-lille.fr/idp/shibboleth","country":"GB","title":"Ecole Centrale de LILLE","geo":{"lat":"50.4351036","lon":"2.8234965"}},{"entityID":"https://idp.ecam.fr/idp/shibboleth","country":"GB","title":"ECAM Lyon","geo":{"lat":"45.7485","lon":"4.8467"}},{"entityID":"https://idp.ed.ac.uk/shibboleth","country":"GB","title":"University of Edinburgh","geo":[{"lat":"55.9213","lon":"-3.1726"}],"icon":"cached/c969e55e2b3f62cad86dcdd56f420e6291240ab7"},{"entityID":"https://idp.edina.ac.uk/shibboleth","country":"GB","title":"EDINA (staff and trials)","geo":{"lat":"55.95","lon":"-3.2"},"icon":"cached/338fca8d762eb90cdd33189079f77e9ac94c78d0"},{"entityID":"https://idp.edina.ac.uk/shibboleth-devel","country":"GB","title":"EDINA - development","geo":[{"lat":"55.935575","lon":"-3.1800687"}],"icon":"cached/fefd52feadb180bc33a3d15a68f746f5f5ee58d9"},{"entityID":"https://idp.edinburghcollege.ac.uk/idp/shibboleth","country":"GB","title":"Edinburgh College","geo":{"lat":"55.9768675","lon":"-3.2450584"}},{"entityID":"https://idp.ehess.fr/idp/shibboleth","country":"GB","title":"EHESS","geo":{"lat":"48.8356611","lon":"2.3721922"}},{"entityID":"https://idp.elte.hu/auth/saml2/idp/metadata.php","country":"HU","title":"Eu00f6tvu00f6s Loru00e1nd University Budapest","geo":[{"lat":"47.49005","lon":"19.05955"}]},{"entityID":"https://idp.enib.fr/idp/shibboleth","country":"GB","title":"ENIB - Ecole Nationale d'Ingu00e9nieurs de Brest","geo":{"lat":"48.390394","lon":"-4.486076"}},{"entityID":"https://idp.enit.fr/idp/shibboleth","country":"GB","title":"ENIT Ecole Nationale Ingu00e9nieurs Tarbes","geo":{"lat":"48.86","lon":"2.35"}},{"entityID":"https://idp.enitab.fr/idp/shibboleth","country":"GB","title":"ENITA de Bordeaux","geo":{"lat":"44.7929834","lon":"-0.6093327"}},{"entityID":"https://idp.enorf.ac.uk/shibboleth","country":"GB","title":"East Norfolk Sixth Form College","geo":{"lat":"51.3794","lon":"-2.3656"}},{"entityID":"https://idp.ens.fr/idp/idp","country":"GB","title":"Ecole normale supu00e9rieure","geo":{"lat":"48.8419811","lon":"2.3448374"}},{"entityID":"https://idp.ensai.fr/idp/shibboleth","country":"GB","title":"ENSAI - Ecole Nationale Statistique Analyse de l'Information","geo":{"lat":"45.65","lon":"6.1667"}},{"entityID":"https://idp.ensait.fr/idp/shibboleth","country":"GB","title":"ENSAIT - Roubaix","geo":{"lat":"50.6942109","lon":"3.1679821"}},{"entityID":"https://idp.ensma.fr/idp/shibboleth","country":"GB","title":"ENSMA - Ecole Nationale Supu00e9rieure de Mu00e9canique et d'Au00e9rotechnique","geo":{"lat":"48.86","lon":"2.35"}},{"entityID":"https://idp.enssib.fr/idp/shibboleth","country":"GB","title":"ENSSIB","geo":{"lat":"45.7667","lon":"4.8833"}},{"entityID":"https://idp.ent.dauphine.fr/idp/shibboleth","country":"GB","title":"Universitu00e9 de Paris 9 - Dauphine","geo":{"lat":"48.8701509","lon":"2.2735044"}},{"entityID":"https://idp.entpe.fr/idp/shibboleth","country":"GB","title":"ENTPE - Vaulx en Velin","geo":{"lat":"45.7795361","lon":"4.9226598"}},{"entityID":"https://idp.epfl.ch/idp/shibboleth","country":"CH","title":"EPFL - EPF Lausanne","geo":[{"lat":"46.520515","lon":"6.565576"}],"icon":"cached/89fcf836befd0d4897bb556f9ee81f872a110fee"},{"entityID":"https://idp.esh.se/idp/shibboleth","country":"SE","title":"Ersta Sku00f6ndal University College","geo":{"lat":"59.3333","lon":"18.05"}},{"entityID":"https://idp.esher.ac.uk/idp/shibboleth","country":"GB","title":"Esher College","geo":{"lat":"51.35","lon":"-0.3667"}},{"entityID":"https://idp.eso.org/idp/shibboleth","country":"GB","title":"ESO - European Organisation for Astronomical Research","geo":{"lat":"48.25","lon":"11.65"},"icon":"cached/642de0d3506bf9fe9e5a048b25d9dbb50981f7b1"},{"entityID":"https://idp.esrc.ac.uk/openathens","country":"GB","title":"Economic & Social Research Council","geo":{"lat":"51.3794","lon":"-2.3656"}},{"entityID":"https://idp.essingtoncc.co.uk/idp/shibboleth","country":"GB","title":"Essington Computer Consultancy Test IdP","geo":{"lat":"39.862153","lon":"-75.2969952"}},{"entityID":"https://idp.eurecom.fr/idp/shibboleth","country":"GB","title":"EURECOM","geo":{"lat":"43.5624","lon":"7.1278"}},{"entityID":"https://idp.evesham.ac.uk/shibboleth","country":"GB","title":"South Worcestershire College","geo":{"lat":"52.1889876","lon":"-2.2195483"}},{"entityID":"https://idp.evidenceinformedpractice.org/oa","country":"GB","title":"Research in Practice for Adults","geo":{"lat":"54","lon":"-2"}},{"entityID":"https://idp.exe-coll.ac.uk/openathens","country":"GB","title":"Exeter College","geo":{"lat":"50.7344614","lon":"-3.5356679"}},{"entityID":"https://idp.fareham.ac.uk/shibboleth","country":"GB","title":"Fareham College","geo":{"lat":"50.8521","lon":"-1.19954"}},{"entityID":"https://idp.farn-ct.ac.uk/idp/shibboleth","country":"GB","title":"Farnborough College of Technology","geo":{"lat":"51.28701","lon":"-0.75226"}},{"entityID":"https://idp.farnborough.ac.uk/shibboleth","country":"GB","title":"The Sixth Form College Farnborough","geo":{"lat":"53.5333","lon":"-2.6167"}},{"entityID":"https://idp.fashionretailacademy.ac.uk/shibboleth","country":"GB","title":"The Fashion Retail Academy","geo":{"lat":"54","lon":"-2"}},{"entityID":"https://idp.feide.no","country":"NO","title":"Feide","geo":{"lat":"60.25","lon":"10.4667"}},{"entityID":"https://idp.fgu.cas.cz/idp/shibboleth","country":"CZ","title":"Institute of Physiology, Public Research Institution","geo":{"lat":"49.75","lon":"15.5"},"icon":"cached/2485ef2e6ac819e917caa7bf9816e67900bb56d5"},{"entityID":"https://idp.fh-kaernten.at/idp/shibboleth","country":"GB","title":"Carinthia University of Applied Sciences","geo":{"lat":"46.6104785","lon":"14.3301564"},"icon":"cached/af726133ee02f60eb2f52d54f1810f9167da8fa4"},{"entityID":"https://idp.fh-rosenheim.de/idp/shibboleth","country":"DE","title":"University of Applied Sciences Rosenheim","geo":{"lat":"47.85","lon":"12.1333"},"icon":"cached/88b75ea35695c19fa339a3597fadc558b11d05d8"},{"entityID":"https://idp.fzu.cas.cz/idp/shibboleth","country":"CZ","title":"Institute of Physics AS CR","geo":{"lat":"49.75","lon":"15.5"},"icon":"cached/a643763d8b6472f541ae79667e7aa244aede4b4c"},{"entityID":"https://idp.gakunin.nii.ac.jp/idp/shibboleth","country":"GB","title":"GakuNin IdP","geo":[{"lat":"35.692558","lon":"139.757999"}],"icon":"cached/974e06253a704ff620e6862f77ac7cadf4ff5352"},{"entityID":"https://idp.gateshead.ac.uk/shibboleth","country":"GB","title":"Gateshead College","geo":{"lat":"54.96688","lon":"-1.59863"}},{"entityID":"https://idp.gcc.ac.uk/shibboleth","country":"GB","title":"Greenwich Community College","geo":{"lat":"51.4909","lon":"0.08028"}},{"entityID":"https://idp.geo-zs.si/idp/20110325","country":"GB","title":"Geolou0161ki zavod Slovenije","geo":{"lat":"46.0553","lon":"14.5144"},"icon":"cached/8718de8bfe6e5c9d6892b34545c6ec7c643a2eb4"},{"entityID":"https://idp.george-monoux.ac.uk/shibboleth","country":"GB","title":"Sir George Monoux College","geo":{"lat":"51.59505","lon":"-0.01574"}},{"entityID":"https://idp.georgikon.hu/idp/saml2/idp/metadata.php","country":"HU","title":"Georgikon - University of Pannonia","geo":[{"lat":"46.75190","lon":"17.2404"}]},{"entityID":"https://idp.gla.ac.uk/shibboleth","country":"GB","title":"University of Glasgow","geo":[{"lat":"55.8719","lon":"4.2875"}],"icon":"cached/f4bfd5e857a5e750fa5f4f7a7b30432b061b3913"},{"entityID":"https://idp.glasgowkelvin.ac.uk/openathens","country":"GB","title":"Glasgow Kelvin College","geo":{"lat":"55.8333","lon":"-4.25"}},{"entityID":"https://idp.glasgowmet.ac.uk/shibboleth","country":"GB","title":"Glasgow Metropolitan College","geo":{"lat":"55.86165","lon":"-4.24888"}},{"entityID":"https://idp.glazer.si/idp/20131113","country":"GB","title":"OSNOVNA u0160OLA JANKA GLAZERJA RUu0160E","geo":{"lat":"46","lon":"15"},"icon":"cached/cba23d33e4951962540ce57c9a9e0b16b54b878c"},{"entityID":"https://idp.gli.cas.cz/idp/shibboleth","country":"CZ","title":"Institute of Geology AS CR, v. v. i.","geo":{"lat":"49.75","lon":"15.5"},"icon":"cached/4197e0ead6fb8385669b51299b4431a29b7904d0"},{"entityID":"https://idp.glowscotland.org.uk/shibboleth","country":"GB","title":"Glow Scotland","geo":{"lat":"56.1333333","lon":"-3.4666667"}},{"entityID":"https://idp.gmit.ie/idp/shibboleth","country":"IE","title":"Galway-Mayo Institute of Technology","geo":[{"lat":"53.2777683","lon":"-9.014748"}],"icon":"cached/d59d4889932d11f63464eac4b0b6254fbee819cd"},{"entityID":"https://idp.godalming.ac.uk/shibboleth","country":"GB","title":"Godalming College","geo":{"lat":"51.17762","lon":"-0.61506"}},{"entityID":"https://idp.goldsmiths.ac.uk/idp/shibboleth","country":"GB","title":"Goldsmiths, University of London","geo":{"lat":"51.4745685","lon":"-0.0362888"},"icon":"cached/8f7760d1fb26c76f29ad63f6c4350ee0a1575b53"},{"entityID":"https://idp.gowercollegeswansea.ac.uk/idp/shibboleth","country":"GB","title":"Gower College Swansea","geo":{"lat":"51.6333","lon":"-3.9667"}},{"entityID":"https://idp.grantham.ac.uk/shibboleth","country":"GB","title":"Grantham College","geo":{"lat":"51.35282","lon":"-0.780395"}},{"entityID":"https://idp.gre.ac.uk/oala/metadata","country":"GB","title":"University of Greenwich - OpenAthens","geo":{"lat":"51.4776","lon":"-0.0104"}},{"entityID":"https://idp.gre.ac.uk/shibboleth","country":"GB","title":"University of Greenwich","geo":{"lat":"51.4832433","lon":"-0.0053087"}},{"entityID":"https://idp.grimsby.ac.uk/oala/metadata","country":"GB","title":"Grimsby Institute of Further & Higher Education (test)","geo":{"lat":"53.5333","lon":"-0.05"}},{"entityID":"https://idp.grimsby.ac.uk/shibboleth","country":"GB","title":"Grimsby Institute of Further & Higher Education","geo":{"lat":"54","lon":"-2"}},{"entityID":"https://idp.gsm.org.uk/entity","country":"GB","title":"GSM London","geo":{"lat":"51.3794","lon":"-2.3656"}},{"entityID":"https://idp.gsmd.ac.uk/openathens","country":"GB","title":"Guildhall School of Music & Drama","geo":{"lat":"54","lon":"-2"}},{"entityID":"https://idp.gssk.si/idp/20141130","country":"GB","title":"GIMNAZIJA IN SREDNJA u0160OLA KOu010cEVJE - Gimnazija","geo":{"lat":"45.6433","lon":"14.8633"},"icon":"cached/d4ab1cc41075b73afe3ca76887df26355f3d82af"},{"entityID":"https://idp.guildford.ac.uk/shibboleth","country":"GB","title":"Guildford College of Further & Higher Education","geo":{"lat":"51.2364188","lon":"-0.5702912"}},{"entityID":"https://idp.gyc.ac.uk/openathens","country":"GB","title":"Great Yarmouth College","geo":{"lat":"52.6086537","lon":"1.717853"}},{"entityID":"https://idp.hackney.ac.uk/shibboleth","country":"GB","title":"Hackney Community College","geo":{"lat":"51.3794","lon":"-2.3656"}},{"entityID":"https://idp.hadlow.ac.uk/idp/shibboleth","country":"GB","title":"Hadlow College","geo":{"lat":"51.22312","lon":"0.332003"}},{"entityID":"https://idp.hainaut-promsoc.be/idp/shibboleth","country":"GB","title":"Hainaut-PromSoc","geo":{"lat":"50.4167","lon":"4.4333"}},{"entityID":"https://idp.harrow.ac.uk/idp/shibboleth","country":"GB","title":"Harrow College","geo":{"lat":"51.6129603","lon":"-0.3392556"}},{"entityID":"https://idp.hartlepoolfe.ac.uk/openathens","country":"GB","title":"Hartlepool College of FE","geo":{"lat":"54.6845","lon":"-1.211"}},{"entityID":"https://idp.hastings.ac.uk/shibboleth","country":"GB","title":"Hastings College","geo":{"lat":"51.4302317","lon":"-2.6030918"}},{"entityID":"https://idp.havant.ac.uk/shibboleth","country":"GB","title":"Havant College","geo":{"lat":"50.85646","lon":"-0.98776"}},{"entityID":"https://idp.havering-college.ac.uk/openathens","country":"GB","title":"Havering College of Further & Higher Education","geo":{"lat":"51.577924","lon":"0.2120829"}},{"entityID":"https://idp.havering-sfc.ac.uk/shibboleth","country":"GB","title":"Havering Sixth Form College","geo":{"lat":"51.56176","lon":"0.23223"}},{"entityID":"https://idp.hca.ac.uk/shibboleth","country":"GB","title":"Hereford College of Arts","geo":{"lat":"51.3794","lon":"-2.3656"}},{"entityID":"https://idp.heanet.ie/idp/shibboleth","country":"IE","title":"HEAnet","geo":[{"lat":"53.34964831237833","lon":"-6.246660947799683"}],"icon":"cached/2f3b4d4ce16050b8883e9be81a39d9494b9aef0e"},{"entityID":"https://idp.hebis.de/uni-frankfurt","country":"DE","title":"Johann Wolfgang Goethe-Universitu00e4t Frankfurt am Main","geo":{"lat":"52.3422229","lon":"14.5543164"}},{"entityID":"https://idp.hereford.ac.uk/shibboleth","country":"GB","title":"Hereford Sixth Form College MD (no longer in use)","geo":{"lat":"51.3794","lon":"-2.3656"}},{"entityID":"https://idp.herts.ac.uk/shibboleth","country":"GB","title":"University of Hertfordshire","geo":{"lat":"51.7519553","lon":"-0.2385638"}},{"entityID":"https://idp.hesam.eu/idp/shibboleth","country":"GB","title":"PRES HESAM - Hautes Etudes-Sorbonne-Arts et Mu00e9tiers","geo":{"lat":"48.8667","lon":"2.3333"}},{"entityID":"https://idp.hgo.se/idp/shibboleth","country":"SE","title":"Hu00f6gskolan pu00e5 Gotland","geo":{"lat":"57.6333","lon":"18.3"}},{"entityID":"https://idp.hig.se/idp/shibboleth","country":"SE","title":"University of Gu00e4vle","geo":[{"lat":"60.6692","lon":"17.1191"}],"icon":"cached/2e6797410e0da193b56b7e04f348209b2fa575f8"},{"entityID":"https://idp.highbury.ac.uk/entity","country":"GB","title":"Highbury College","geo":{"lat":"50.8366496","lon":"-1.0584089"}},{"entityID":"https://idp.hillcroft.ac.uk/openathens","country":"GB","title":"Hillcroft College","geo":{"lat":"51.3794","lon":"-2.3656"}},{"entityID":"https://idp.his.se/idp/shibboleth","country":"SE","title":"University of Sku00f6vde","geo":[{"lat":"58.39","lon":"13.85"},{"lat":"58.39412","lon":"13.85542"}],"icon":"cached/9ee08bcbc18af60cd95d1beb9ac85d325b4032d2"},{"entityID":"https://idp.hkr.se/idp/shibboleth","country":"SE","title":"Hu00f6gskolan Kristianstad","geo":{"lat":"56.049235","lon":"14.1465324"}},{"entityID":"https://idp.holborncollege.ac.uk/openathens","country":"GB","title":"Holborn College","geo":{"lat":"51.491811","lon":"0.042335"}},{"entityID":"https://idp.holycross.ac.uk/shibboleth","country":"GB","title":"Holy Cross College","geo":{"lat":"53.58441","lon":"-2.29933"}},{"entityID":"https://idp.hs-esslingen.de/idp/shibboleth","country":"DE","title":"Hochschule Esslingen - University of Applied Sciences","geo":{"lat":"48.7384055","lon":"9.3124178"},"icon":"cached/663b0d0b75244888251f59113b8edc6564fb3be0"},{"entityID":"https://idp.hslu.ch/idp/shibboleth","country":"CH","title":"HSLU - Lucerne University of Applied Sciences and Arts","geo":[{"lat":"47.046681","lon":"8.314912"},{"lat":"47.013434","lon":"8.305034"},{"lat":"47.174274","lon":"8.512537"},{"lat":"47.060845","lon":"8.322106"},{"lat":"47.048388","lon":"8.309762"},{"lat":"47.048096","lon":"8.314655"},{"lat":"47.054246","lon":"8.295853"}],"icon":"cached/306e8675c5f9b68c56465a82aae6e57cb21f6591"},{"entityID":"https://idp.hud.ac.uk/shibboleth","country":"GB","title":"University of Huddersfield - Athens","geo":{"lat":"51.3794","lon":"-2.3656"}},{"entityID":"https://idp.hughbaird.ac.uk/oala/metadata","country":"GB","title":"Hugh Baird College (Test)","geo":{"lat":"51.5","lon":"-0.13"}},{"entityID":"https://idp.hughbaird.ac.uk/shibboleth","country":"GB","title":"Hugh Baird College","geo":{"lat":"53.44532","lon":"-2.99029"}},{"entityID":"https://idp.hull.ac.uk/shibboleth","country":"GB","title":"University of Hull (Athens)","geo":{"lat":"54.2626512","lon":"-0.3939443"}},{"entityID":"https://idp.iadt.ie/idp/shibboleth","country":"IE","title":"Dun Laoghaire Institite of Art Design and Technology","geo":[{"lat":"53.2802499","lon":"-6.1539366"}],"icon":"cached/2b62457b411b314efe63564432502e7d87a2aead"},{"entityID":"https://idp.iamtest.ox.ac.uk/shibboleth","country":"GB","title":"University of Oxford - Test IdP for IAMTEST authentication stack","geo":{"lat":"51.75","lon":"-1.25"}},{"entityID":"https://idp.ibot.cas.cz/idp/shibboleth","country":"CZ","title":"Institut of Botany ASCR","geo":{"lat":"49.75","lon":"15.5"},"icon":"cached/a5df4afbf635599216e3231f5a3aa666c76d4812"},{"entityID":"https://idp.ibp.cas.cz/idp/shibboleth","country":"CZ","title":"Institute of Biophysics AS CR, v.v.i.","geo":{"lat":"49.75","lon":"15.5"},"icon":"cached/ff2cb4655d2f88eeaf5e87419b1d3472e068c0ba"},{"entityID":"https://idp.icpf.cas.cz/idp/shibboleth","country":"CZ","title":"Institute of Chemical Process Fundamentals of the ASCR","geo":{"lat":"49.75","lon":"15.5"},"icon":"cached/37f8f60939ecfa68c1672250a4e16ca113cbfa1e"},{"entityID":"https://idp.ids-mannheim.de/idp/shibboleth","country":"DE","title":"Institut fu00fcr Deutsche Sprache (IDS)","geo":{"lat":"49.4883","lon":"8.4647"},"icon":"cached/03fb15fc114779953362aefab6f14375dd6db425"},{"entityID":"https://idp.ifal.edu.br/idp/shibboleth","country":"GB","title":"IFAL - Instituto Federal de Educacao, Ciencia e Tecnologia de Alagoas","geo":{"lat":"-10","lon":"-55"}},{"entityID":"https://idp.ifap.edu.br/idp/shibboleth","country":"GB","title":"IFAP - Instituto Federal do Amapa","geo":{"lat":"-10","lon":"-55"}},{"entityID":"https://idp.ifc.edu.br/idp/shibboleth","country":"GB","title":"IFC - Instituto Federal Catarinense","geo":{"lat":"-26.9222","lon":"-49.0615"}},{"entityID":"https://idp.ifpb.edu.br/idp/shibboleth","country":"GB","title":"IFPB - Instituto Federal da Paraiba","geo":{"lat":"-10","lon":"-55"}},{"entityID":"https://idp.ifremer.fr/idp/shibboleth","country":"GB","title":"IFREMER","geo":{"lat":"48.918272","lon":"6.473654"}},{"entityID":"https://idp.ifs.org.uk/openathens","country":"GB","title":"Institute for Fiscal Studies","geo":{"lat":"51.3794","lon":"-2.3656"}},{"entityID":"https://idp.ifsudestemg.edu.br/idp/shibboleth","country":"GB","title":"IFSudesteMG - Instituto Federal do Sudeste de Minas Gerais","geo":{"lat":"-21.7517","lon":"-43.3528"}},{"entityID":"https://idp.ifto.edu.br/idp/shibboleth","country":"GB","title":"IFTO-Instituto Federal do Educacao do Tocantins","geo":{"lat":"-10","lon":"-55"}},{"entityID":"https://idp.iit.it/idp/shibboleth","country":"GB","title":"IIT - Istituto Italiano di Tecnologia","geo":{"lat":"44.4167","lon":"8.95"},"icon":"cached/a8ec9b233e2af73aa7c7787cae5e134d0fe3df8a"},{"entityID":"https://idp.img.cas.cz/idp/shibboleth","country":"CZ","title":"Institute of Molecular Genetics of the ASCR, v. v. i.","geo":{"lat":"49.75","lon":"15.5"}},{"entityID":"https://idp.inalco.fr/idp","country":"GB","title":"INALCO - Institut National des Langues et Civilisations Orientales","geo":{"lat":"48.8273284","lon":"2.3764622"}},{"entityID":"https://idp.inha.fr/idp/shibboleth","country":"GB","title":"INHA - Institut National de l'Histoire de l'Art","geo":{"lat":"48.8667","lon":"2.3333"}},{"entityID":"https://idp.inp-toulouse.fr/idp/shibboleth","country":"GB","title":"INPT - Institut National Polytechnique de Toulouse","geo":{"lat":"48.86","lon":"2.35"}},{"entityID":"https://idp.inpa.gov.br/idp/shibboleth","country":"GB","title":"INPA - Instituto Nacional de Pesquisas da Amazonia","geo":{"lat":"-10","lon":"-55"}},{"entityID":"https://idp.inra.fr/idp/shibboleth","country":"GB","title":"INRA - Institut National de la Recherche Agronomique","geo":{"lat":"48.86","lon":"2.35"}},{"entityID":"https://idp.insa-rennes.fr/idp/shibboleth","country":"GB","title":"INSA de Rennes","geo":{"lat":"48.1216861","lon":"-1.6351435"}},{"entityID":"https://idp.inserm.fr/idp/shibboleth","country":"GB","title":"INSERM","geo":{"lat":"48.8","lon":"2.3667"}},{"entityID":"https://idp.inthehive.net/idp/shibboleth","country":"GB","title":"OPENHIVE","geo":{"lat":"54","lon":"-2"}},{"entityID":"https://idp.ipa.ie/idp/shibboleth","country":"IE","title":"Institute of Public Administration","geo":[{"lat":"53.3337363","lon":"-6.2300127"}],"icon":"cached/5310290459ca8bf1763b7bc5ef2bd7b9e20907bc"},{"entityID":"https://idp.ipb.fr/idp/shibboleth","country":"GB","title":"IPB - Bordeaux INP","geo":{"lat":"44.837789","lon":"-0.57918"}},{"entityID":"https://idp.ipm.cas.cz/idp/shibboleth","country":"CZ","title":"Institute of Physics of Materials of the Academy of Sciences of the Czech Republic, v. v. i.","geo":{"lat":"49.75","lon":"15.5"},"icon":"cached/b58fe117eaa2d3603995fc50e0358304a87e28b6"},{"entityID":"https://idp.ipp.cas.cz/idp/shibboleth","country":"CZ","title":"Institute of Plasma Physics AS CR, v.v.i.","geo":{"lat":"49.75","lon":"15.5"},"icon":"cached/e3041a68cc68fc9ba546bcabc784289bcc49cf38"},{"entityID":"https://idp.irf.se/idp/shibboleth","country":"SE","title":"Swedish Institute of Space Physics","geo":[{"lat":"67.84","lon":"20.41"}],"icon":"cached/2c2e22481b5421b473e3c899aaebac8ca50d996c"},{"entityID":"https://idp.irstea.fr/idp/shibboleth","country":"GB","title":"IRSTEA - Institut national de recherche en sciences et technologies pour l'environnement et l'agriculture","geo":{"lat":"48.86","lon":"2.35"}},{"entityID":"https://idp.isibrno.cas.cz/idp/shibboleth","country":"CZ","title":"Institute of Scientific Instruments of the ASCR, v. v. i.","geo":{"lat":"49.75","lon":"15.5"},"icon":"cached/c45539e34796bae25003932314950c4b46f3906a"},{"entityID":"https://idp.it-tallaght.ie/idp/shibboleth","country":"IE","title":"Institute of Technology Tallaght","geo":[{"lat":"53.2903000","lon":"-6.3631789"}],"icon":"cached/f0952bdf498e98a90357bb18f783b34fff495d94"},{"entityID":"https://idp.it.gu.se/idp/shibboleth","country":"SE","title":"University of Gothenburg","geo":[{"lat":"57.6986","lon":"11.9712"}],"icon":"cached/84c2647dd1a894129dc9a46f5add2a52f0d5a913"},{"entityID":"https://idp.it.su.se/idp/shibboleth","country":"SE","title":"Stockholm University","geo":[{"lat":"59.3625","lon":"18.0586"}],"icon":"cached/085527e2a73be2a62ab6fe482d3e95c05b5ae8a9"},{"entityID":"https://idp.itam.cas.cz/idp/shibboleth","country":"CZ","title":"Institute of Theoretical and Applied Mechanics AS CR, v.v.i.","geo":{"lat":"49.75","lon":"15.5"},"icon":"cached/5f3debcdb29a7883cfae13e75d11237abc3d13ff"},{"entityID":"https://idp.its.fz-juelich.de/idp/shibboleth","country":"DE","title":"Forschungszentrum Ju00fclich GmbH","geo":{"lat":"50.907525","lon":"6.408119"}},{"entityID":"https://idp.itsligo.ie/idp/shibboleth","country":"IE","title":"Institute of Technology Sligo","geo":[{"lat":"54.2769291","lon":"-8.4651857"}],"icon":"cached/06d7e19e1b99fcbccc8c7f5da5a5cb8c42c05d53"},{"entityID":"https://idp.ittralee.ie/idp","country":"IE","title":"Institute of Technology Tralee","geo":[{"lat":"52.28620934512703","lon":"-9.67296838760376"}],"icon":"cached/9c89144fe443585bd969ebd72192b5c718c4ed99"},{"entityID":"https://idp.izs.it/idp/shibboleth","country":"GB","title":"Istituto Zooprofilattico Sperimentale dell'Abruzzo e del Molise "G. Caporale"","geo":{"lat":"42.8333","lon":"12.8333"}},{"entityID":"https://idp.jisc.ac.uk/idp/shibboleth","country":"GB","title":"Jisc","geo":{"lat":"51.5","lon":"-0.13"}},{"entityID":"https://idp.johnruskin.ac.uk/shibboleth","country":"GB","title":"John Ruskin College","geo":{"lat":"51.34934","lon":"-0.04308"}},{"entityID":"https://idp.kb.se/idp/shibboleth","country":"SE","title":"National Library of Sweden","geo":[{"lat":"59.33822","lon":"18.0722617"}],"icon":"cached/7c8a5fbbd06824aa4cb01a0f6d8267c7fc96df55"},{"entityID":"https://idp.kidderminster.ac.uk/idp/shibboleth","country":"GB","title":"Kidderminster College","geo":{"lat":"52.3860598","lon":"-2.2468958"}},{"entityID":"https://idp.kingston-college.ac.uk/idp/shibboleth","country":"GB","title":"Kingston College (Shibboleth)","geo":{"lat":"51.4167","lon":"-0.2833"}},{"entityID":"https://idp.kingston.ac.uk/shibboleth","country":"GB","title":"Kingston University London","geo":{"lat":"51.4032369","lon":"-0.303173"},"icon":"cached/5de9b934577854b71c38edbdaf4b976501d5e89b"},{"entityID":"https://idp.kirkleescollege.ac.uk/entity","country":"GB","title":"Kirklees College","geo":{"lat":"53.69569","lon":"-1.636483"}},{"entityID":"https://idp.klz.org.uk/idp/shibboleth","country":"GB","title":"Kent Learning Zone (KLZ)","geo":{"lat":"51.4333","lon":"0.3667"}},{"entityID":"https://idp.kmc.ac.uk/shibboleth","country":"GB","title":"Kingston Maurward College","geo":{"lat":"50.71846","lon":"-2.40468"}},{"entityID":"https://idp.knowsleycollege.ac.uk/idp/shibboleth","country":"GB","title":"Knowsley College","geo":{"lat":"53.41352","lon":"-2.85119"}},{"entityID":"https://idp.konstfack.se/idp/shibboleth","country":"SE","title":"Konstfack","geo":[{"lat":"59.299772","lon":"17.994303"}],"icon":"cached/49004bfe1fc1581c58378b6ff57a555d71632af1"},{"entityID":"https://idp.kva.se/idp/shibboleth","country":"SE","title":"The Royal Swedish Academy of Sciences","geo":[{"lat":"59.36542","lon":"18.05204"}],"icon":"cached/3a80596c3e277c5e5774757d951a50f3403ea6ae"},{"entityID":"https://idp.lambeth.ac.uk/idp/shibboleth","country":"GB","title":"Lambeth College","geo":{"lat":"51.505494","lon":"-0.112446"}},{"entityID":"https://idp.lancs.ac.uk/idp/shibboleth","country":"GB","title":"Lancaster University (New IdP)","geo":{"lat":"54.0667","lon":"-2.8333"},"icon":"cached/b7c46fc0091516bb87bddc33f6abfe5db550a7af"},{"entityID":"https://idp.lancs.ac.uk/shibboleth","country":"GB","title":"Lancaster University","geo":{"lat":"54.0102461","lon":"-2.7866524"}},{"entityID":"https://idp.lboro.ac.uk/shibboleth","country":"GB","title":"Loughborough University (ATHENS)","geo":{"lat":"52.7707741","lon":"-1.2043467"}},{"entityID":"https://idp.lboro.ac.uk/simplesaml/saml2/idp/metadata.php","country":"GB","title":"Loughborough University","geo":{"lat":"52.7707741","lon":"-1.2043467"}},{"entityID":"https://idp.lcwc.ac.uk/shibboleth","country":"GB","title":"Lakes College West Cumbria","geo":{"lat":"54.6060946","lon":"-3.5318066"}},{"entityID":"https://idp.le.ac.uk/idp/shibboleth","country":"GB","title":"University of Leicester (Shibboleth Test)","geo":{"lat":"52.6333","lon":"-1.1333"}},{"entityID":"https://idp.le.ac.uk/shibboleth","country":"GB","title":"University of Leicester","geo":{"lat":"52.6222978","lon":"-1.1256607"}},{"entityID":"https://idp.learningfutures.org.uk/idp/shibboleth","country":"GB","title":"Blackburn with Darwen BSF","geo":{"lat":"53.6898596","lon":"-2.4678625"}},{"entityID":"https://idp.lec.ac.uk/idp/shibboleth","country":"GB","title":"Leicester College","geo":{"lat":"51.5","lon":"-0.13"}},{"entityID":"https://idp.leeds-art.ac.uk/openathens","country":"GB","title":"Leeds College of Art","geo":{"lat":"53.80846","lon":"-1.55145"}},{"entityID":"https://idp.leedscitycollege.ac.uk/idp/shibboleth","country":"GB","title":"Leeds City College","geo":{"lat":"53.8196538","lon":"-1.4424158"}},{"entityID":"https://idp.leedslearning.net/shibboleth","country":"GB","title":"Leeds Learning Network","geo":{"lat":"18.417","lon":"-64.617"}},{"entityID":"https://idp.leedsmet.ac.uk/shibboleth","country":"GB","title":"Leeds Beckett University","geo":{"lat":"53.8281873","lon":"-1.589922"}},{"entityID":"https://idp.leedstrinity.ac.uk/shibboleth","country":"GB","title":"Leeds Trinity University","geo":{"lat":"53.8486191","lon":"-1.647746"}},{"entityID":"https://idp.leyton.ac.uk/shibboleth","country":"GB","title":"Leyton Sixth Form College","geo":{"lat":"54","lon":"-2"}},{"entityID":"https://idp.lib.cas.cz/idp/shibboleth","country":"CZ","title":"Academy of Sciences Library","geo":{"lat":"50.0833","lon":"14.4667"},"icon":"cached/52ce920f6fa2d45125fae25d37956ea4f622d713"},{"entityID":"https://idp.lincoln.ac.uk/oala/metadata","country":"GB","title":"University of Lincoln","geo":{"lat":"53.2333","lon":"-0.5333"}},{"entityID":"https://idp.lipa.ac.uk/shibboleth","country":"GB","title":"LIPA Learning Services","geo":{"lat":"51.3794","lon":"-2.3656"}},{"entityID":"https://idp.lit.ie/saml2","country":"IE","title":"Limerick Institute of Technology","geo":[{"lat":"52.67518513199228","lon":"-8.64822506904602"}],"icon":"cached/08553952b3ecca20f162102cbb0412b66fd8af4f"},{"entityID":"https://idp.ljmu.ac.uk/shibboleth","country":"GB","title":"Liverpool John Moores University","geo":{"lat":"53.390743","lon":"-2.8945884"}},{"entityID":"https://idp.llandrillo.ac.uk/shibboleth","country":"GB","title":"Grwp Llandrillo Menai","geo":{"lat":"53.3118945","lon":"-3.756558"}},{"entityID":"https://idp.llgc.org.uk/idp/shibboleth","country":"GB","title":"National Library of Wales","geo":{"lat":"52.414857","lon":"-4.069598"}},{"entityID":"https://idp.lmc.ac.uk/idp/shibboleth","country":"GB","title":"Lancaster and Morecambe College","geo":{"lat":"54.0615","lon":"-2.82877"}},{"entityID":"https://idp.lnu.se/idp/shibboleth","country":"SE","title":"Linnu00e6us University","geo":[{"lat":"56.6661","lon":"16.3484"},{"lat":"56.8546","lon":"14.8304"}]},{"entityID":"https://idp.london.ac.uk/shibboleth","country":"GB","title":"University of London","geo":{"lat":"51.4272658","lon":"-0.1748139"},"icon":"cached/80285b5b033470d749c846f4ba21624b38c8b6aa"},{"entityID":"https://idp.londonmet.ac.uk/entity","country":"GB","title":"London Metropolitan University","geo":{"lat":"51.5516062","lon":"-0.1107208"}},{"entityID":"https://idp.longleypark.ac.uk/shibboleth","country":"GB","title":"Longley Park Sixth Form College","geo":{"lat":"54","lon":"-2"}},{"entityID":"https://idp.longroad.ac.uk/idp/shibboleth","country":"GB","title":"Long Road Sixth Form College","geo":{"lat":"52.18302","lon":"-2.18599"},"icon":"cached/ab2ef256fc29c78c2565119ef3e39bbffa44e3a8"},{"entityID":"https://idp.lrz.de/idp/shibboleth","country":"DE","title":"Leibniz Supercomputing Centre (LRZ) of the Bavarian Academy of Sciences and Humanities","geo":{"lat":"48.25","lon":"11.65"},"icon":"cached/ec78fab7a1159f710309b48ae6583c3de7175c4a"},{"entityID":"https://idp.lse.ac.uk/idp/shibboleth","country":"GB","title":"London School of Economics: Test IdP","geo":{"lat":"51.5081289","lon":"-0.128005"}},{"entityID":"https://idp.lshtm.ac.uk/shibboleth","country":"GB","title":"London School of Hygiene & Tropical Medicine","geo":{"lat":"51.520779","lon":"-0.1302386"}},{"entityID":"https://idp.lshtm.ac.uk/shibboleth-xfr","country":"GB","title":"London School of Hygiene and Tropical Medicine (test)","geo":{"lat":"51.520779","lon":"-0.1302386"}},{"entityID":"https://idp.lstonline.ac.uk/idp/shibboleth","country":"GB","title":"London School of Theology","geo":{"lat":"53.7753","lon":"-1.5619"}},{"entityID":"https://idp.lutonsfc.ac.uk/openathens","country":"GB","title":"Luton Sixth Form College","geo":{"lat":"51.9015","lon":"-0.4137"}},{"entityID":"https://idp.macclesfield.ac.uk/shibboleth","country":"GB","title":"Macclesfield College","geo":{"lat":"53.330925","lon":"-2.249098"}},{"entityID":"https://idp.marjon.ac.uk/idp/shibboleth","country":"GB","title":"University of St Mark & St John","geo":{"lat":"51.2278","lon":"-2.8886"}},{"entityID":"https://idp.mast.br/idp/shibboleth","country":"GB","title":"MAST - Museu de Astronomia e Ciencias Afins","geo":{"lat":"-22.9","lon":"-43.2333"}},{"entityID":"https://idp.math.cas.cz/idp/shibboleth","country":"CZ","title":"Institute of Mathematics AS CR","geo":{"lat":"49.75","lon":"15.5"},"icon":"cached/7b79b0638d31c4b3c60b5dc2449f4ccc814b02d3"},{"entityID":"https://idp.mba.ac.uk/idp/shibboleth","country":"GB","title":"The Marine Biological Association of the UK","geo":{"lat":"51.5","lon":"-0.13"},"icon":"cached/90b3f4a6f707d2f88c27dc2e37c16a1b9611cd4d"},{"entityID":"https://idp.mbc.ac.uk/metadata","country":"GB","title":"Birmingham Metropolitan College","geo":{"lat":"52.4832099","lon":"-1.8892229"}},{"entityID":"https://idp.mbro.ac.uk/metadata","country":"GB","title":"Middlesbrough College","geo":{"lat":"54.57046","lon":"-1.23528"}},{"entityID":"https://idp.mbu.cas.cz/idp/shibboleth","country":"CZ","title":"Institute of Microbiology  AS CR, v.v.i.","geo":{"lat":"49.75","lon":"15.5"},"icon":"cached/e582980394118604e1b901186bac42da61d8fd8f"},{"entityID":"https://idp.mci4me.at/idp/shibboleth","country":"GB","title":"Management Center Innsbruck","geo":{"lat":"47.269052","lon":"11.398186"}},{"entityID":"https://idp.mdx.ac.uk/shibboleth","country":"GB","title":"Middlesex University","geo":{"lat":"51.5897376","lon":"-0.2287188"}},{"entityID":"https://idp.meduniwien.ac.at/idp/shibboleth","country":"GB","title":"Medical University of Vienna","geo":{"lat":"48.2191556","lon":"16.3515795"},"icon":"cached/a437f225584d6fab111350767208167b2eb4aa00"},{"entityID":"https://idp.merthyr.ac.uk/idp/shibboleth","country":"GB","title":"Merthyr Tydfil College","geo":{"lat":"51.747508","lon":"-3.378051"}},{"entityID":"https://idp.mic.ul.ie/idp/shibboleth","country":"IE","title":"Mary Immaculate College","geo":[{"lat":"52.6505454","lon":"-8.6402852"}],"icon":"cached/a5cf857adb98cabf06c92c79a6b85a507a7de971"},{"entityID":"https://idp.midchesh.ac.uk/idp/shibboleth","country":"GB","title":"Mid Cheshire College","geo":{"lat":"53.2494133","lon":"-2.536619"}},{"entityID":"https://idp.mimas.ac.uk/idp/shibboleth","country":"GB","title":"University of Manchester: Mimas","geo":{"lat":"53.3331","lon":"-6.2489"}},{"entityID":"https://idp.mkcollege.ac.uk/openathens","country":"GB","title":"Milton Keynes College","geo":{"lat":"51.994473","lon":"-0.739088"}},{"entityID":"https://idp.mmu.ac.uk/shibboleth","country":"GB","title":"Manchester Metropolitan University","geo":{"lat":"53.4705106","lon":"-2.2398328"}},{"entityID":"https://idp.mnhn.fr/idp/shibboleth","country":"GB","title":"Musu00e9um National d'Histoire Naturelle (MNHN)","geo":{"lat":"48.8667","lon":"2.3333"}},{"entityID":"https://idp.morleycollege.ac.uk/shibboleth","country":"GB","title":"Morley College","geo":{"lat":"51.4431215","lon":"-2.6027899"}},{"entityID":"https://idp.motherwell.co.uk/shibboleth","country":"GB","title":"New College Lanarkshire","geo":{"lat":"55.78364","lon":"-3.96607"}},{"entityID":"https://idp.moulton.ac.uk/idp/shibboleth","country":"GB","title":"Moulton College","geo":{"lat":"52.2833","lon":"-0.85"}},{"entityID":"https://idp.mrc.ac.uk/shibboleth","country":"GB","title":"Medical Research Council","geo":{"lat":"51.61722","lon":"-0.22026"}},{"entityID":"https://idp.mta.hu/idp/saml2/idp/metadata.php","country":"HU","title":"MTA Akadu00e9miai Adattu00e1r (AAT)","geo":{"lat":"47.5","lon":"19.0833"}},