[{"entityID":"http://adfs.directory.vccs.edu/adfs/services/trust","country":"US","title":"Virginia Community College System","geo":{"lat":"39.7293128","lon":"-104.8826052"}},{"entityID":"http://adfs.morgan.edu/adfs/services/trust","country":"US","title":"Morgan State University","geo":{"lat":"39.439","lon":"-76.5921"}},{"entityID":"http://idp.devsnc.com/openam","country":"US","title":"ServiceNow","geo":{"lat":"45.7788","lon":"-119.529"}},{"entityID":"http://login.ewu.edu/adfs/services/trust","country":"US","title":"Eastern Washington University","geo":{"lat":"47.490821","lon":"-117.577979"},"icon":"cached/90baecb28c1d55d52c24a14a4602237a134885aa"},{"entityID":"http://login.mayo.edu/adfs/services/trust","country":"US","title":"Mayo Clinic","geo":{"lat":"33.5849572","lon":"-111.7927169"}},{"entityID":"http://shibboleth.bsu.edu/sso","country":"US","title":"Ball State University","geo":{"lat":"40.2050978","lon":"-85.4040194"}},{"entityID":"http://sso.davidson.edu/adfs/services/trust","country":"US","title":"Davidson College","geo":{"lat":"35.502229","lon":"-80.847465"},"icon":"cached/c8469844252fd60c219f705624399d876ffae568"},{"entityID":"http://sso.sandburg.edu/adfs/services/trust","country":"US","title":"Carl Sandburg College","geo":{"lat":"40.9826195","lon":"-90.4073524"},"icon":"cached/23ab6f35c01a1e1e06ec15e0aab43fd9e3a0ee6c"},{"entityID":"http://sts.uidaho.edu/adfs/services/trust","country":"US","title":"University of Idaho","geo":{"lat":"46.8363","lon":"-116.6846"}},{"entityID":"https://access.research.cchmc.org/fed/idp/metadata","country":"US","title":"Cincinnati Children's Hospital Medical Center","geo":{"lat":"39.154","lon":"-84.4873"}},{"entityID":"https://adfs.unco.edu/adfs/services/trust","country":"US","title":"University of Northern Colorado","geo":{"lat":"40.4118909","lon":"-104.6936052"},"icon":"cached/b5a68eb94ad71918e8c678614d4c013899ace92d"},{"entityID":"https://alumidp.princeton.edu/idp/shibboleth","country":"US","title":"Princeton University Alumni","geo":{"lat":"40.3756","lon":"-74.6597"}},{"entityID":"https://auth.chaminade.edu/idp/shibboleth","country":"US","title":"Chaminade University of Honolulu","geo":{"lat":"21.2905834","lon":"-157.8073979"}},{"entityID":"https://auth.creighton.edu/idp/shibboleth","country":"US","title":"Creighton University","geo":{"lat":"41.2651072","lon":"-95.9475985"},"icon":"cached/389b427cf6bb5d8aaf59a1a8283772897d1e7e8e"},{"entityID":"https://auth.unomaha.edu/idp","country":"US","title":"University of Nebraska at Omaha","geo":{"lat":"41.2594729","lon":"-96.0051124"},"icon":"cached/147545bfe6494b56722c63c09bca0424ab017ef5"},{"entityID":"https://auth.yale.edu/idp/shibboleth","country":"US","title":"Yale University","geo":{"lat":"41.3124884","lon":"-72.9305538"}},{"entityID":"https://authentic.txstate.edu/idp/shibboleth","country":"US","title":"Texas State University - San Marcos","geo":{"lat":"29.8901156","lon":"-97.9374816"},"icon":"cached/50215b10a1f78557b38fbd04ce7d3e574f82f3d8"},{"entityID":"https://authidp.shsu.edu/idp/shibboleth","country":"US","title":"Sam Houston State University","geo":{"lat":"30.7142","lon":"-95.5482"}},{"entityID":"https://caneid.miami.edu/idp/shibboleth","country":"US","title":"University of Miami","geo":{"lat":"25.7173947","lon":"-80.2781262"}},{"entityID":"https://cas.cgcent.miami.edu/idp/shibboleth","country":"US","title":"zTest_University of Miami","geo":{"lat":"25.72","lon":"-80.2707"}},{"entityID":"https://cas.kumc.edu/idp/shibboleth","country":"US","title":"University of Kansas Medical Center","geo":{"lat":"39.0566716","lon":"-94.61079"}},{"entityID":"https://certify.skidmore.edu/idp/shibboleth","country":"US","title":"Skidmore College","geo":{"lat":"43.0969344","lon":"-73.7845569"}},{"entityID":"https://checkpoint.fullsail.edu/idp/shibboleth","country":"US","title":"Full Sail University","geo":{"lat":"38","lon":"-97"},"icon":"cached/474d2ae90cb0a359299f743c1a7f640fb9a66021"},{"entityID":"https://cma-shibboleth.csum.edu/idp/shibboleth","country":"US","title":"California Maritime Academy","geo":{"lat":"38.0694177","lon":"-122.2305825"}},{"entityID":"https://cpp.stoodify.com/idp/shibboleth","country":"US","title":"Stoodify","geo":{"lat":"45.7788","lon":"-119.529"},"icon":"cached/4ffae82a13aad82fbab30704f6d3274d28877305"},{"entityID":"https://falconidp.uwrf.edu/idp/shibboleth","country":"US","title":"University of Wisconsin-River Falls","geo":{"lat":"44.837","lon":"-92.592"},"icon":"cached/76b9691b4857fd08f1413b5b5eae2f9137f44886"},{"entityID":"https://fed.huit.harvard.edu/idp/shibboleth","country":"US","title":"Harvard University","geo":{"lat":"42.38","lon":"-71.1329"}},{"entityID":"https://fedauth.colorado.edu/idp/shibboleth","country":"US","title":"University of Colorado at Boulder","geo":{"lat":"40.0100804","lon":"-105.2690434"}},{"entityID":"https://federation.icermali.org/adfs/services/trust","country":"US","title":"NIAID International Center for Excellence in Research - Mali","geo":{"lat":"12.65","lon":"-8"}},{"entityID":"https://federation.iceruganda.org/adfs/services/trust","country":"US","title":"NIAID International Center for Excellence in Research - Uganda","geo":{"lat":"0.3156","lon":"32.5656"}},{"entityID":"https://fedidp.bcm.edu/idp/shibboleth","country":"US","title":"Baylor College of Medicine","geo":{"lat":"29.7107363","lon":"-95.3966045"}},{"entityID":"https://fedidp.uh.edu/idp/shibboleth","country":"US","title":"University of Houston","geo":{"lat":"29.834","lon":"-95.4342"}},{"entityID":"https://fim.temple.edu/idp/shibboleth","country":"US","title":"Temple University","geo":{"lat":"40.1654489","lon":"-75.1917461"},"icon":"cached/5a8dc5407087c84ab0b44804da747923860b4eb1"},{"entityID":"https://fiuidp.fiu.edu/idp/shibboleth","country":"US","title":"Florida International University","geo":{"lat":"26.0814869","lon":"-80.2363705"},"icon":"cached/6f5d0b02bc9e92febb1d74619ff4e7f63f8db140"},{"entityID":"https://gateway.capella.edu/FIM/sps/capella_saml2_idp/saml20","country":"US","title":"Capella University","geo":{"lat":"44.9764446","lon":"-93.2683732"}},{"entityID":"https://icarus.sdstate.edu/idp/shibboleth","country":"US","title":"South Dakota State University","geo":{"lat":"44.3183273","lon":"-96.7842015"}},{"entityID":"https://id.uakron.edu/idp/shibboleth","country":"US","title":"University of Akron, Main Campus, The","geo":{"lat":"42.9659341","lon":"-78.7118427"}},{"entityID":"https://identity.andrew.cmu.edu/idp/shibboleth","country":"US","title":"Carnegie Mellon University Tartan-ConnectID for Guests","geo":{"lat":"40.4439","lon":"-79.9561"},"icon":"cached/4d10a050428cffba2a477c4426a4cb472fa4fb90"},{"entityID":"https://identity.gettysburg.edu/idp/shibboleth","country":"US","title":"Gettysburg College","geo":{"lat":"39.8418","lon":"-77.2291"},"icon":"cached/d7a0764fd0cc4f4fa20264714f07417e70a9b718"},{"entityID":"https://identity.research.gov/sso","country":"US","title":"National Science Foundation","geo":{"lat":"38.88","lon":"-77.111"}},{"entityID":"https://identityprovider.anl.gov/idp/shibboleth","country":"US","title":"Argonne National Laboratory","geo":{"lat":"41.7106632","lon":"-87.9609911"},"icon":"cached/e5e8014683db53e08af8b304dde2c3720b9618d3"},{"entityID":"https://idm-l1-test.unl.edu/idp-zsha1/shibboleth","country":"US","title":"Z SHA-256 Test BB1","geo":{"lat":"40.8","lon":"-96.667"}},{"entityID":"https://idm-l1-test.unl.edu/idp-zsha2/shibboleth","country":"US","title":"Z SHA-256 Test BB2","geo":{"lat":"40.8","lon":"-96.667"}},{"entityID":"https://idp-co.calstate.edu/idp/shibboleth","country":"US","title":"California State University, Office of the Chancellor","geo":{"lat":"37.868979","lon":"-122.266073"}},{"entityID":"https://idp-prod.cc.ucf.edu/idp/shibboleth","country":"US","title":"University of Central Florida","geo":{"lat":"28.5940186","lon":"-81.1995511"},"icon":"cached/a618c48898477c916eb381f453eda46a11d32b44"},{"entityID":"https://idp.american.edu/idp/shibboleth","country":"US","title":"American University","geo":{"lat":"38.9378283","lon":"-77.0891365"}},{"entityID":"https://idp.apu.edu/shibboleth","country":"US","title":"Azusa Pacific University","geo":{"lat":"34.1290057","lon":"-117.8898359"},"icon":"cached/ea37048b325025bda1b15097aa9deeea294576c0"},{"entityID":"https://idp.aub.edu.lb/idp/shibboleth","country":"US","title":"American University of Beirut","geo":{"lat":"33.8719","lon":"35.5097"}},{"entityID":"https://idp.bnl.gov/idp/shibboleth","country":"US","title":"Brookhaven National Laboratory","geo":{"lat":"40.8707596","lon":"-72.8800783"},"icon":"cached/7901b3b35549c178f3f7f944b507eb7432a0ebc4"},{"entityID":"https://idp.boisestate.edu/idp/shibboleth","country":"US","title":"Boise State University","geo":{"lat":"43.6040056","lon":"-116.203194"},"icon":"cached/dab40c50f72b40c52ddd6bc1e033f5d036cbe6e7"},{"entityID":"https://idp.bridgewater.edu/simplesaml","country":"US","title":"Bridgewater College","geo":{"lat":"38.3789235","lon":"-78.9670039"}},{"entityID":"https://idp.broadinstitute.org/idp/shibboleth","country":"US","title":"The Broad Institute of MIT and Harvard","geo":{"lat":"42.3626","lon":"-71.0843"},"icon":"cached/5e3db0e377f3680fa0b50038c0cce7c103d34b3b"},{"entityID":"https://idp.calpoly.edu/idp/shibboleth","country":"US","title":"California Polytechnic State University-San Luis Obispo","geo":{"lat":"35.3190482","lon":"-120.6616616"}},{"entityID":"https://idp.calstatela.edu/idp/shibboleth","country":"US","title":"California State University, Los Angeles","geo":{"lat":"34.0677442","lon":"-118.1667538"}},{"entityID":"https://idp.caltech.edu/idp/shibboleth","country":"US","title":"California Institute of Technology","geo":{"lat":"34.1371237","lon":"-118.1253218"}},{"entityID":"https://idp.cirrusidentity.com/idp","country":"US","title":"Cirrus Identity, Inc.","geo":{"lat":"47.6344","lon":"-122.3422"},"icon":"cached/37f88c4b436499fbff3eae1f801887d8377cfd42"},{"entityID":"https://idp.clarion.edu/idp","country":"US","title":"Clarion University","geo":{"lat":"41.208392","lon":"-79.3789371"},"icon":"cached/b40f486de046d513120a8549f802d9e3edb5e78b"},{"entityID":"https://idp.colby.edu/idp/shibboleth","country":"US","title":"Colby College","geo":{"lat":"44.5650181","lon":"-69.6641774"},"icon":"cached/21997a6907d18a1381e7e33a96d66b65ff72f6e9"},{"entityID":"https://idp.crl.edu/idp/shibboleth","country":"US","title":"Center for Research Libraries","geo":{"lat":"39.834","lon":"-89.6539"}},{"entityID":"https://idp.csudh.edu/idp/shibboleth","country":"US","title":"California State University, Dominguez Hills","geo":{"lat":"33.8628242","lon":"-118.2545834"}},{"entityID":"https://idp.csus.edu/idp/shibboleth","country":"US","title":"California State University, Sacramento","geo":{"lat":"38.5619859","lon":"-121.4250877"}},{"entityID":"https://idp.csusb.edu/idp/shibboleth","country":"US","title":"California State University, San Bernardino","geo":{"lat":"34.1818139","lon":"-117.3219816"},"icon":"cached/e1ec04de9b9613b170e2069dd277c29e99488f43"},{"entityID":"https://idp.csusm.edu/idp/shibboleth","country":"US","title":"California State University, San Marcos","geo":{"lat":"33.1297841","lon":"-117.1587664"}},{"entityID":"https://idp.cwu.edu/idp/shibboleth","country":"US","title":"Central Washington University","geo":{"lat":"46.979","lon":"-120.4703"},"icon":"cached/0ebce9b625afba9b34dc028cdeaa0753bce51ea9"},{"entityID":"https://idp.davidsonccc.edu/idp/shibboleth","country":"US","title":"Davidson County Community College","geo":{"lat":"35.2271","lon":"-80.8431"}},{"entityID":"https://idp.elon.edu/idp/shibboleth","country":"US","title":"Elon University","geo":{"lat":"36.0982762","lon":"-79.5115433"}},{"entityID":"https://idp.es.net/idp/shibboleth","country":"US","title":"ESnet","geo":{"lat":"37.8668","lon":"-122.2536"}},{"entityID":"https://idp.esc.edu/idp/shibboleth","country":"US","title":"SUNY Empire State College","geo":{"lat":"42.9829982","lon":"-74.2951955"},"icon":"cached/4c1d3ebb1f7685269baef2514fed28cffc1a28db"},{"entityID":"https://idp.fnal.gov/idp/shibboleth","country":"US","title":"Fermi National Accelerator Laboratory","geo":{"lat":"41.839","lon":"-88.362"},"icon":"cached/293decf5fdf86e720502802f790115d6186fcca0"},{"entityID":"https://idp.gallaudet.edu/idp/shibboleth","country":"US","title":"Gallaudet University","geo":{"lat":"38.9084171","lon":"-76.9921155"}},{"entityID":"https://idp.gatech.edu/idp/shibboleth","country":"US","title":"Georgia Institute of Technology","geo":{"lat":"33.7791792","lon":"-84.3996303"}},{"entityID":"https://idp.goodwin.edu/idp/saml","country":"US","title":"Goodwin College","geo":{"lat":"39.95523","lon":"-75.184292"}},{"entityID":"https://idp.goucher.edu/idp/shibboleth","country":"US","title":"Goucher College","geo":{"lat":"39.4101448","lon":"-76.5921665"}},{"entityID":"https://idp.greatplains.net/idp/shibboleth","country":"US","title":"GPN (Great Plains Network)","geo":{"lat":"38.9033","lon":"-92.1022"}},{"entityID":"https://idp.gsu.edu/idp/shibboleth","country":"US","title":"Georgia State University","geo":{"lat":"33.7553421","lon":"-84.3843793"}},{"entityID":"https://idp.hampshire.edu/idp/shibboleth","country":"US","title":"Hampshire College","geo":{"lat":"42.323981","lon":"-72.529356"}},{"entityID":"https://idp.hawaii.edu/idp/shibboleth","country":"US","title":"University of Hawaii","geo":{"lat":"21.2968637","lon":"-157.8171335"}},{"entityID":"https://idp.ias.edu/idp/shibboleth","country":"US","title":"Institute for Advanced Study","geo":{"lat":"40.3445508","lon":"-74.6546816"}},{"entityID":"https://idp.iastate.edu/shibboleth","country":"US","title":"Iowa State University","geo":{"lat":"42.0279081","lon":"-93.644582"},"icon":"cached/36b224af38fc9517aee90e4a81a7257672345a5d"},{"entityID":"https://idp.incommonfederation.org/idp/shibboleth","country":"US","title":"InCommon Operations","geo":{"lat":"32.5105659","lon":"-92.0436841"}},{"entityID":"https://idp.its.utexas.edu/idp/shibboleth","country":"US","title":"University of Texas at Austin","geo":{"lat":"30.2850284","lon":"-97.7335226"},"icon":"cached/67b4795630ae8333a5c5d30f4e29db31292f23c7"},{"entityID":"https://idp.juilliard.edu/idp/shibboleth","country":"US","title":"The Juilliard School","geo":{"lat":"40.7769","lon":"-73.9813"},"icon":"cached/cb62356b9e8b0fe2f68e7c616f6847dda6d8d4be"},{"entityID":"https://idp.kutztown.edu/idp/shibboleth","country":"US","title":"Kutztown University of Pennsylvania","geo":{"lat":"40.509706","lon":"-75.784171"}},{"entityID":"https://idp.lhup.edu/idp/shibboleth","country":"US","title":"Lock Haven University","geo":{"lat":"41.1418697","lon":"-77.4619754"},"icon":"cached/d215e1b8dc48585659a5d0bfbc4894245ac0a656"},{"entityID":"https://idp.longsight.com/idp/shibboleth","country":"US","title":"Longsight","geo":{"lat":"34.9463509","lon":"-80.9795609"},"icon":"cached/34222dde68ba3b5a86396dcd13d6f84a4df4a493"},{"entityID":"https://idp.maine.edu/idp/shibboleth","country":"US","title":"University of Maine System","geo":{"lat":"44.8020134","lon":"-68.7714884"},"icon":"cached/e4cd6dffab989b72bdf853f45566a06fc31111fa"},{"entityID":"https://idp.marshall.edu/idp/shibboleth","country":"US","title":"Marshall University","geo":{"lat":"38.4221","lon":"-82.4317"},"icon":"cached/d73b6fb18c0eace21fb5877e7119e140def9c47c"},{"entityID":"https://idp.mbl.edu/idp/shibboleth","country":"US","title":"Marine Biological Laboratory","geo":{"lat":"41.5250098","lon":"-70.6712845"}},{"entityID":"https://idp.millersville.edu/idp/shibboleth","country":"US","title":"Millersville University of Pennsylvania","geo":{"lat":"39.9966806","lon":"-76.3543298"}},{"entityID":"https://idp.mines.edu/idp/shibboleth","country":"US","title":"Colorado School of Mines","geo":{"lat":"39.7146","lon":"-105.2433"}},{"entityID":"https://idp.mtholyoke.edu/idp/shibboleth","country":"US","title":"Mount Holyoke College","geo":{"lat":"42.2586","lon":"-72.5752"}},{"entityID":"https://idp.ndsu.edu/idp/shibboleth","country":"US","title":"North Dakota State University Main Campus","geo":{"lat":"47.9201275","lon":"-97.0732799"},"icon":"cached/45e6858347c2a2d1b20916446ae13838c4e7f4c3"},{"entityID":"https://idp.niu.edu/idp/shibboleth","country":"US","title":"Northern Illinois University","geo":{"lat":"41.934273","lon":"-88.7737159"}},{"entityID":"https://idp.oar.net/idp/shibboleth","country":"US","title":"Ohio Technology Consortium (OH-TECH)","geo":{"lat":"40.4172871","lon":"-82.907123"},"icon":"cached/2a0a6f31501e1aaa123bf45e3eaaa9318d1c917d"},{"entityID":"https://idp.okstate.edu/idp/shibboleth","country":"US","title":"Oklahoma State University System","geo":{"lat":"34.9622186","lon":"-97.0360233"},"icon":"cached/601300e0aa0551f956f4a672368609cc443e1059"},{"entityID":"https://idp.ornl.gov/idp","country":"US","title":"Oak Ridge National Laboratory","geo":{"lat":"35.9724","lon":"-84.2904"},"icon":"cached/b90ff5487e414fd0aa17061f14467d2fe7ee0aa4"},{"entityID":"https://idp.parchment.com/idp/shibboleth","country":"US","title":"Parchment, Inc.","geo":{"lat":"38.647","lon":"-121.542"}},{"entityID":"https://idp.pct.edu/idp/shibboleth","country":"US","title":"Pennsylvania College of Technology","geo":{"lat":"38","lon":"-97"},"icon":"cached/8be01bed6595673f5e7515e0111283aecc2df57c"},{"entityID":"https://idp.pennkey.upenn.edu/idp/shibboleth","country":"US","title":"University of Pennsylvania","geo":{"lat":"39.9492048","lon":"-75.1930958"},"icon":"cached/012bcba06e65cefd6e48925f0e67c4a0ecd0c821"},{"entityID":"https://idp.philau.edu/idp/shibboleth","country":"US","title":"Philadelphia University","geo":{"lat":"40.0328","lon":"-75.1795"},"icon":"cached/74c5b1c2c0f8db1ce01fa68f7de8211b4da1c387"},{"entityID":"https://idp.pima.edu/idp/shibboleth","country":"US","title":"Pima County Community College District","geo":{"lat":"32.2008","lon":"-110.898"}},{"entityID":"https://idp.pitt.edu/idp/shibboleth","country":"US","title":"University of Pittsburgh","geo":{"lat":"40.4445972","lon":"-79.9598383"},"icon":"cached/65ea95c22dea6fc4bf6405f1ecb06411727766ff"},{"entityID":"https://idp.princeton.edu/idp/shibboleth","country":"US","title":"Princeton University","geo":{"lat":"40.3445508","lon":"-74.6546816"}},{"entityID":"https://idp.pugetsound.edu/idp/shibboleth","country":"US","title":"University of Puget Sound","geo":{"lat":"47.2646","lon":"-122.4821"}},{"entityID":"https://idp.purdue.edu/idp/shibboleth","country":"US","title":"Purdue University Main Campus","geo":{"lat":"40.428662","lon":"-86.914611"},"icon":"cached/29c37dd6c0d2998529b6a3d50195d7dfb79af8a8"},{"entityID":"https://idp.radford.edu/idp/shibboleth","country":"US","title":"Radford University","geo":{"lat":"37.1375","lon":"-80.5506"}},{"entityID":"https://idp.raidp.org/idp/shibboleth","country":"US","title":"Clemson's Research Affiliate Identity Provider","geo":{"lat":"34.5342","lon":"-82.7167"}},{"entityID":"https://idp.reed.edu/idp/shibboleth","country":"US","title":"Reed College","geo":{"lat":"45.4810169","lon":"-122.6344585"}},{"entityID":"https://idp.rice.edu/idp/shibboleth","country":"US","title":"Rice University","geo":{"lat":"29.720649","lon":"-95.393802"}},{"entityID":"https://idp.sbcc.edu/idp/shibboleth","country":"US","title":"Santa Barbara City College","geo":{"lat":"34.4059177","lon":"-119.6997066"}},{"entityID":"https://idp.sdsu.edu/idp/shibboleth","country":"US","title":"San Diego State University","geo":{"lat":"32.7750242","lon":"-117.070582"},"icon":"cached/d7a7ed4443ff956911723ff892b30ee0024adf80"},{"entityID":"https://idp.sfsu.edu/idp/shibboleth","country":"US","title":"San Francisco State University","geo":{"lat":"37.7262772","lon":"-122.4792744"}},{"entityID":"https://idp.shi.com","country":"US","title":"SHI International Corporation"},{"entityID":"https://idp.shibboleth.ttu.edu/idp/shibboleth","country":"US","title":"Texas Tech University","geo":{"lat":"33.5843677","lon":"-101.8834691"}},{"entityID":"https://idp.ship.edu/idp/shibboleth","country":"US","title":"Shippensburg University of Pennsylvania","geo":{"lat":"40.046","lon":"-77.481"},"icon":"cached/cce96d609f648a0839743f1307dc6cc06dfd2515"},{"entityID":"https://idp.si.edu/idp/shibboleth","country":"US","title":"Smithsonian Institution","geo":{"lat":"38.888561","lon":"-77.026885"}},{"entityID":"https://idp.smith.edu/idp/shibboleth","country":"US","title":"Smith College","geo":{"lat":"42.319778","lon":"-72.640571"},"icon":"cached/4d235e9011f5ce2c681f251ccbdcea148c43755a"},{"entityID":"https://idp.smu.edu/idp/shibboleth","country":"US","title":"Southern Methodist University","geo":{"lat":"32.8448299","lon":"-96.7848564"},"icon":"cached/3192a100195a03862763580315cd74a82b4395e2"},{"entityID":"https://idp.sru.edu/idp/shibboleth","country":"US","title":"Slippery Rock University of Pennsylvania","geo":{"lat":"41.0611571","lon":"-80.0444982"}},{"entityID":"https://idp.symplicity.com/idp/shibboleth","country":"US","title":"Symplicity Corporation","geo":{"lat":"33.7516","lon":"-84.3915"}},{"entityID":"https://idp.tamucc.edu/idp/shibboleth","country":"US","title":"Texas A&M University-Corpus Christi","geo":{"lat":"27.702","lon":"-97.3424"},"icon":"cached/e9ab7c1b307bfba0e0a81dbe9999ca6317992428"},{"entityID":"https://idp.tulane.edu/idp/shibboleth","country":"US","title":"Tulane University","geo":{"lat":"29.940752","lon":"-90.1202541"}},{"entityID":"https://idp.ua.edu/idp/shibboleth","country":"US","title":"University of Alabama, The","geo":{"lat":"33.2130593","lon":"-87.55203"}},{"entityID":"https://idp.uaex.edu/idp/shibboleth","country":"US","title":"University of Arkansas, Cooperative Extension Service","geo":{"lat":"34.7309632","lon":"-92.3416518"},"icon":"cached/5a449250e8fc6c4fe7cfc8c0cb9be5419f936c5d"},{"entityID":"https://idp.uark.edu/idp/shibboleth","country":"US","title":"University of Arkansas","geo":{"lat":"39.6417846","lon":"-106.5900978"},"icon":"cached/3f96453b4d71e34192f99df7d52059ab5b3d9d68"},{"entityID":"https://idp.ubalt.edu/idp/shibboleth","country":"US","title":"University of Baltimore","geo":{"lat":"39.3055807","lon":"-76.6188523"}},{"entityID":"https://idp.udc.edu/idp/shibboleth","country":"US","title":"University of the District of Columbia","geo":{"lat":"38.9449161","lon":"-77.0653668"}},{"entityID":"https://idp.uhd.edu/idp/shibboleth","country":"US","title":"University of Houston-Downtown","geo":{"lat":"29.7214447","lon":"-95.3431894"}},{"entityID":"https://idp.unicon.net/idp/shibboleth","country":"US","title":"Unicon, Inc.","geo":{"lat":"37.526","lon":"-122.356"},"icon":"cached/4a8df6dff330fe8e68dee30f44bc05731fdf849b"},{"entityID":"https://idp.unmc.edu/idp/shibboleth","country":"US","title":"University of Nebraska Medical Center","geo":{"lat":"41.25869","lon":"-95.9728499"},"icon":"cached/3bfdd23a40ddbe8cf7982850b3aa6a503569cb7c"},{"entityID":"https://idp.uta.edu/idp/shibboleth","country":"US","title":"University of Texas at Arlington","geo":{"lat":"32.729834","lon":"-97.1139274"}},{"entityID":"https://idp.utdallas.edu/idp/shibboleth","country":"US","title":"University of Texas at Dallas","geo":{"lat":"32.9837161","lon":"-96.7520757"}},{"entityID":"https://idp.utk.edu/idp/shibboleth","country":"US","title":"University of Tennessee","geo":{"lat":"35.9544016","lon":"-83.9294553"}},{"entityID":"https://idp.utmb.edu/idp/shibboleth","country":"US","title":"University of Texas Medical Branch At Galveston","geo":{"lat":"29.3108825","lon":"-94.7779926"}},{"entityID":"https://idp.utsystem.edu/idp/shibboleth","country":"US","title":"University of Texas System","geo":{"lat":"32.862872","lon":"-96.844894"},"icon":"cached/d7cabcfd4930b9323b050c7edce6522e7978050e"},{"entityID":"https://idp.uttyler.edu/idp/shibboleth","country":"US","title":"University of Texas At Tyler","geo":{"lat":"32.3172435","lon":"-95.2544689"},"icon":"cached/084ba837303b18c3c1c2965064369c729e58a06d"},{"entityID":"https://idp.utulsa.edu/idp/shibboleth","country":"US","title":"University of Tulsa","geo":{"lat":"36.1510984","lon":"-95.943613"}},{"entityID":"https://idp.uvm.edu/idp/shibboleth","country":"US","title":"University of Vermont","geo":{"lat":"44.475963","lon":"-73.195155"},"icon":"cached/d8a50d3a456ed740e576aa1c0f9e3d03a34f193b"},{"entityID":"https://idp.uwex.uwc.edu/idp","country":"US","title":"University of Wisconsin Colleges and Extension","geo":{"lat":"43.0611","lon":"-89.4067"},"icon":"cached/1d9d91d439bb4ee9ae1562a20ec529ad8a02e5ab"},{"entityID":"https://idp.uwm.edu/idp/shibboleth","country":"US","title":"University of Wisconsin-Milwaukee","geo":{"lat":"43.077693","lon":"-87.8809567"},"icon":"cached/528907a5c28252541ddf383c6c43e6c24b1931d8"},{"entityID":"https://idp.weber.edu/idp","country":"US","title":"Weber State University","geo":{"lat":"41.1925574","lon":"-111.9446403"},"icon":"cached/5153d49187851217c76bc8cfb3d6fd41e75f4ad1"},{"entityID":"https://idp.wm.edu/idp/shibboleth","country":"US","title":"College of William and Mary","geo":{"lat":"37.2708511","lon":"-76.717779"}},{"entityID":"https://idp.wmich.edu/idp/shibboleth","country":"US","title":"Western Michigan University","geo":{"lat":"42.2808665","lon":"-85.6030071"},"icon":"cached/c4c12acfeb213fac2c12e069cca3124a8795d338"},{"entityID":"https://idp.wooster.edu/idp/shibboleth","country":"US","title":"The College of Wooster","geo":{"lat":"40.8110565","lon":"-81.9335997"}},{"entityID":"https://idp.wpi.edu/idp/shibboleth","country":"US","title":"Worcester Polytechnic Institute","geo":{"lat":"42.2742628","lon":"-71.8083921"},"icon":"cached/b49b5d2847e961c95b48085268b3b452a86406a9"},{"entityID":"https://idp.wpunj.edu/idp/shibboleth","country":"US","title":"William Paterson University","geo":{"lat":"40.945901","lon":"-74.198388"}},{"entityID":"https://idp.wvu.edu/idp/shibboleth","country":"US","title":"West Virginia University","geo":{"lat":"39.6456","lon":"-79.9433"}},{"entityID":"https://idp01.sjsu.edu/idp/shibboleth","country":"US","title":"San Jose State University","geo":{"lat":"37.3292605","lon":"-121.8739806"}},{"entityID":"https://idp1.utpa.edu/idp/shibboleth","country":"US","title":"University of Texas-Pan American","geo":{"lat":"26.3083477","lon":"-98.1742244"}},{"entityID":"https://idp2.gru.edu:8443/nidp/saml2/metadata","country":"US","title":"Georgia Regents University"},{"entityID":"https://idp2.unr.edu/idp/shibboleth","country":"US","title":"University of Nevada, Reno","geo":{"lat":"39.545042","lon":"-119.815776"},"icon":"cached/eb34836d96a1229ff919d7ccf995d1f9cbe4ec51"},{"entityID":"https://idpStaging.miamioh.edu/idp/shibboleth","country":"US","title":"zTEST_MUOhioIdP","geo":{"lat":"39.4792","lon":"-84.713"}},{"entityID":"https://incommon.sunycnse.com/idp/shibboleth","country":"US","title":"SUNY Polytechnic Institute","geo":{"lat":"43.155","lon":"-75.143"}},{"entityID":"https://incommon.waketech.edu/idp/shibboleth","country":"US","title":"Wake Tech Community College","geo":{"lat":"35.650967","lon":"-78.706834"}},{"entityID":"https://its-00004v7.iowa.uiowa.edu/idp/shibboleth","country":"US","title":"Z SHA-256 Test KB1","geo":{"lat":"41.664","lon":"-91.5447"}},{"entityID":"https://its-00004v8.iowa.uiowa.edu/idp/shibboleth","country":"US","title":"Z SHA-256 Test KB2","geo":{"lat":"41.664","lon":"-91.5447"}},{"entityID":"https://its-shib.its.csulb.edu/idp/shibboleth","country":"US","title":"California State University, Long Beach","geo":{"lat":"33.7824468","lon":"-118.1141639"}},{"entityID":"https://judge.wcu.edu/idp/shibboleth","country":"US","title":"Western Carolina University","geo":{"lat":"35.3093963","lon":"-83.1845641"},"icon":"cached/ac2afc10d1b70f56ed96223a6abcc00e05f25d55"},{"entityID":"https://junebug.mcc.edu/idp/shibboleth","country":"US","title":"Mott Community College","geo":{"lat":"43.0116","lon":"-83.6578"}},{"entityID":"https://login.bc.edu/idp/shibboleth","country":"US","title":"Boston College","geo":{"lat":"42.3345367","lon":"-71.1701021"}},{"entityID":"https://login.cmu.edu/idp/shibboleth","country":"US","title":"Carnegie Mellon University","geo":{"lat":"40.444663","lon":"-79.9450388"},"icon":"cached/f2d7d3693a5245ae91dd401cb8ef25eb9ecc3b50"},{"entityID":"https://login.emory.edu/idp/shibboleth","country":"US","title":"Emory University","geo":{"lat":"33.7920366","lon":"-84.3237331"}},{"entityID":"https://login.fandm.edu/idp/shibboleth","country":"US","title":"Franklin & Marshall College","geo":{"lat":"40.0450641","lon":"-76.3217567"},"icon":"cached/7587b55cfb5cbabc3d1d47aac62602d6accd14c0"},{"entityID":"https://login.ligo.org/idp/shibboleth","country":"US","title":"LIGO Scientific Collaboration","geo":{"lat":"43.0522","lon":"-87.965"},"icon":"cached/10a1545514e3326a8f8353f0bbf09b0abc4d860d"},{"entityID":"https://login.montana.edu/idp/shibboleth","country":"US","title":"Montana State University - Bozeman","geo":{"lat":"45.628","lon":"-110.9013"},"icon":"cached/de3a922f08e060b63bbc61f8e3bb603d5d4537c5"},{"entityID":"https://login.nd.edu/idp/shibboleth","country":"US","title":"University of Notre Dame","geo":{"lat":"41.7043332","lon":"-86.2412543"}},{"entityID":"https://login.oregonstate.edu/idp/shibboleth","country":"US","title":"Oregon State University","geo":{"lat":"44.5642","lon":"-123.279"},"icon":"cached/f14d3f4659fc1c035805e52309eb3901591ff2ac"},{"entityID":"https://login.regis.edu","country":"US","title":"Regis University","geo":{"lat":"38.939219","lon":"-104.811608"}},{"entityID":"https://login.sonoma.edu/shibboleth","country":"US","title":"Sonoma State University","geo":{"lat":"38.3416871","lon":"-122.6701267"}},{"entityID":"https://login.stolaf.edu/idp/shibboleth","country":"US","title":"St. Olaf College","geo":{"lat":"44.4625569","lon":"-93.185098"}},{"entityID":"https://login.uc.edu/idp/shibboleth","country":"US","title":"University of Cincinnati Main Campus","geo":{"lat":"39.1341049","lon":"-84.518981"},"icon":"cached/7975f9d640166b0c8d2405dd56bdd228abcaba3a"},{"entityID":"https://login.ufl.edu/idp/shibboleth","country":"US","title":"University of Florida","geo":{"lat":"29.6435064","lon":"-82.3506142"},"icon":"cached/a12a4fffb6952b00438006f49c6e647280e34e13"},{"entityID":"https://login.umt.edu/idp/shibboleth","country":"US","title":"The University of Montana","geo":{"lat":"47.116","lon":"-114.0498"},"icon":"cached/69a0a4b9d240c5cdeded062c1166c5bd4a01411a"},{"entityID":"https://login.unlv.edu/FIM/sps/MyShib/saml20","country":"US","title":"University of Nevada-Las Vegas","geo":{"lat":"40.5412","lon":"-119.5869"}},{"entityID":"https://login.wisc.edu/idp/shibboleth","country":"US","title":"University of Wisconsin-Madison","geo":{"lat":"43.0746567","lon":"-89.4033382"},"icon":"cached/a4620ed625a91208a06f37191c9362e4c21031b4"},{"entityID":"https://login.wustl.edu/idp/shibboleth","country":"US","title":"Washington University in St. Louis","geo":{"lat":"38.6356472","lon":"-90.2631779"},"icon":"cached/de77e5d85a75d659c94579ceaa9841bb1858e807"},{"entityID":"https://logintest.wustl.edu/idp/shibboleth","country":"US","title":"zTest_Washington University in St. Louis","geo":{"lat":"38.6657","lon":"-90.3231"}},{"entityID":"https://mckinley.csuci.edu/idp/shibboleth","country":"US","title":"California State University, Channel Islands","geo":{"lat":"34.1619222","lon":"-119.0437696"}},{"entityID":"https://myid.vsc.edu/idp/shibboleth","country":"US","title":"Vermont State Colleges","geo":{"lat":"33.82745","lon":"-117.88945"}},{"entityID":"https://netid.uwosh.edu/idp/shibboleth","country":"US","title":"University of Wisconsin Oshkosh","geo":{"lat":"44.0213641","lon":"-88.5508611"}},{"entityID":"https://neuidmsso.neu.edu/idp/shibboleth","country":"US","title":"Northeastern University","geo":{"lat":"42.3495657","lon":"-71.1047446"}},{"entityID":"https://oba.coppin.edu/idp/shibboleth","country":"US","title":"Coppin State University","geo":{"lat":"39.0007","lon":"-76.973"}},{"entityID":"https://prdidp.uncg.edu/idp/shibboleth","country":"US","title":"University of North Carolina at Greensboro","geo":{"lat":"36.066142","lon":"-79.805868"},"icon":"cached/6b58ae3f109346adc54eda673c5d50079d73ebac"},{"entityID":"https://qagateway.capella.edu/FIM/sps/CAPLA_SAML2_IDP/saml20","country":"US","title":"ztest_Capella University","geo":{"lat":"40.6726","lon":"-73.5364"}},{"entityID":"https://rushib.rockefeller.edu/idp/shibboleth","country":"US","title":"Rockefeller University","geo":{"lat":"40.7694","lon":"-73.9609"}},{"entityID":"https://saml.dpsnc.net/idp/shibboleth","country":"US","title":"Durham Public Schools","geo":{"lat":"36.0574728","lon":"-78.8564474"}},{"entityID":"https://secure.binghamton.edu/idp/shibboleth","country":"US","title":"Binghamton University","geo":{"lat":"42.0882281","lon":"-75.9619271"},"icon":"cached/73d1c204e8c3b53be4f6cc4a3d5f000863ef0db6"},{"entityID":"https://secure.stevenson.edu/idp/shibboleth","country":"US","title":"Stevenson University","geo":{"lat":"39.4260914","lon":"-76.7784047"}},{"entityID":"https://shib-idp.its.csufresno.edu/idp/shibboleth","country":"US","title":"California State University, Fresno","geo":{"lat":"36.8117156","lon":"-119.7496355"}},{"entityID":"https://shib-idp.rpi.edu/idp/shibboleth","country":"US","title":"Rensselaer Polytechnic Institute","geo":{"lat":"42.7319414","lon":"-73.6727517"}},{"entityID":"https://shib-idp.siu.edu/idp/shibboleth","country":"US","title":"Southern Illinois University","geo":{"lat":"37.7138335","lon":"-89.2116506"}},{"entityID":"https://shib-idp.tufts.edu/idp/shibboleth","country":"US","title":"Tufts University","geo":{"lat":"42.4086406","lon":"-71.1181093"},"icon":"cached/1953e31c682fff0da11f6cdede40d677c2c47920"},{"entityID":"https://shib-idp.umsystem.edu/idp/shibboleth","country":"US","title":"University of Missouri System","geo":{"lat":"39.0403725","lon":"-94.5729973"}},{"entityID":"https://shib-idp2.uth.tmc.edu/idp/shibboleth","country":"US","title":"University of Texas Health Science Center At Houston","geo":{"lat":"29.703225","lon":"-95.402956"}},{"entityID":"https://shib-pprd.middleware.vt.edu","country":"US","title":"zTEST_VTIdP","geo":{"lat":"37.1791","lon":"-80.3515"}},{"entityID":"https://shib-test-sha1.middleware.vt.edu","country":"US","title":"Z SHA-256 Test MA1","geo":{"lat":"37.1791","lon":"-80.3515"}},{"entityID":"https://shib-test-sha2.middleware.vt.edu","country":"US","title":"Z SHA-256 Test MA2","geo":{"lat":"37.1791","lon":"-80.3515"}},{"entityID":"https://shib.bu.edu/idp/shibboleth","country":"US","title":"Boston University","geo":{"lat":"42.3495657","lon":"-71.1047446"}},{"entityID":"https://shib.bucknell.edu/idp/shibboleth","country":"US","title":"Bucknell University","geo":{"lat":"40.9537227","lon":"-76.8850673"},"icon":"cached/e72b7ff446835e4ecd0c93601ca9f395c01a5228"},{"entityID":"https://shib.calu.edu/idp/shibboleth","country":"US","title":"California University of Pennsylvania","geo":{"lat":"40.0631433","lon":"-79.8820947"},"icon":"cached/4829a18f91281a98eca075f11a7d249916d1f365"},{"entityID":"https://shib.ccbcmd.edu/idp/shibboleth","country":"US","title":"Community College of Baltimore County","geo":{"lat":"39.2694","lon":"-76.7447"},"icon":"cached/e002a63059093a01aedf2ef196d97c6c38ffe858"},{"entityID":"https://shib.csub.edu/idp/shibboleth","country":"US","title":"California State University, Bakersfield","geo":{"lat":"35.3476474","lon":"-119.1012608"}},{"entityID":"https://shib.fortlewis.edu/idp/shibboleth","country":"US","title":"Fort Lewis College","geo":{"lat":"37.2768988","lon":"-107.866408"}},{"entityID":"https://shib.its.fsu.edu/idp/shibboleth","country":"US","title":"Florida State University","geo":{"lat":"30.4202271","lon":"-84.3179414"}},{"entityID":"https://shib.lternet.edu/idp/shibboleth","country":"US","title":"LTERN (Long Term Ecological Research Network)","geo":{"lat":"35.0443","lon":"-106.673"}},{"entityID":"https://shib.mcnallysmith.edu/idp/shibboleth","country":"US","title":"McNally Smith College","geo":{"lat":"44.94975","lon":"-93.097494"}},{"entityID":"https://shib.mdanderson.org/idp/shibboleth","country":"US","title":"University of Texas M.D. Anderson Cancer Center","geo":{"lat":"29.708359","lon":"-95.397322"}},{"entityID":"https://shib.med.cornell.edu/idp/shibboleth","country":"US","title":"Weill Cornell Medical College","geo":{"lat":"40.7654867","lon":"-73.9543068"},"icon":"cached/4dadc43859a3b4b9564e9d1e8fcc30b63b0cfabf"},{"entityID":"https://shib.ou.edu/idp/shibboleth","country":"US","title":"University of Oklahoma","geo":{"lat":"35.2475146","lon":"-97.4703333"}},{"entityID":"https://shib.sou.edu/idp/shibboleth","country":"US","title":"Southern Oregon University","geo":{"lat":"42.1883536","lon":"-122.6904416"},"icon":"cached/d30417e22933889edddbbd59292071cf6ca694e7"},{"entityID":"https://shib.towson.edu/idp/shibboleth","country":"US","title":"Towson University","geo":{"lat":"39.39334","lon":"-76.6112494"},"icon":"cached/5c3e8cee66c28a8af3c844af671ef7339467e607"},{"entityID":"https://shib.uni.edu/idp/shibboleth","country":"US","title":"University of Northern Iowa","geo":{"lat":"42.5159765","lon":"-92.4641235"},"icon":"cached/82064da80adc5b9369b2037d6ff717c936e0c59a"},{"entityID":"https://shib.unl.edu/idp/shibboleth","country":"US","title":"University of Nebraska-Lincoln","geo":{"lat":"40.8224674","lon":"-96.6985681"},"icon":"cached/2e4130a2bb8dabd8adb93b61b186ceac5f3b276f"},{"entityID":"https://shib.utb.edu/idp/shibboleth","country":"US","title":"University of Texas At Brownsville","geo":{"lat":"25.8995822","lon":"-97.4895575"}},{"entityID":"https://shib.uthscsa.edu/idp/shibboleth","country":"US","title":"University of Texas Health Science Center At San Antonio","geo":{"lat":"29.5080334","lon":"-98.5740204"}},{"entityID":"https://shib.uvu.edu/idp/shibboleth","country":"US","title":"Utah Valley University","geo":{"lat":"40.2903","lon":"-111.7236"}},{"entityID":"https://shib.wheatonma.edu/idp/shibboleth","country":"US","title":"Wheaton College (MA)","geo":{"lat":"41.86833","lon":"-88.099622"}},{"entityID":"https://shib.wit.edu/idp/shibboleth","country":"US","title":"Wentworth Institute of Technology","geo":{"lat":"42.3374786","lon":"-71.0953609"},"icon":"cached/3cef75322cffcab887d949410ca0d8609a77dead"},{"entityID":"https://shib01.ship.edu/idp/shibboleth","country":"US","title":"Shippensburg University","geo":{"lat":"40.0578186","lon":"-77.5220132"},"icon":"cached/c534a2a44bdba25ee77ab92ae65d2f5f6d6cfd72"},{"entityID":"https://shib1.uwplatt.edu/idp/shibboleth","country":"US","title":"University of Wisconsin - Platteville","geo":{"lat":"42.7526","lon":"-90.4891"},"icon":"cached/0d65ba4fbc68576ba15446268b3e7614b291f9fb"},{"entityID":"https://shib2.its.rochester.edu/idp/shibboleth","country":"US","title":"University of Rochester","geo":{"lat":"43.122428","lon":"-77.6292697"}},{"entityID":"https://shib2.swmed.edu/idp/shibboleth","country":"US","title":"University of Texas Southwestern Medical Center at Dallas","geo":{"lat":"32.8123033","lon":"-96.8406737"},"icon":"cached/7dff46043617fe5ea63c89ac3a3a331dedf2e1ef"},{"entityID":"https://shib2.utep.edu/idp/shibboleth","country":"US","title":"University of Texas at El Paso","geo":{"lat":"31.7667473","lon":"-106.5059783"},"icon":"cached/507b16c360b42885a18c8159548aaffe03519345"},{"entityID":"https://shibb-idp.georgetown.edu/idp/shibboleth","country":"US","title":"Georgetown University","geo":{"lat":"38.9097356","lon":"-77.0752726"}},{"entityID":"https://shibb.utpb.edu/idp/shibboleth","country":"US","title":"University of Texas of the Permian Basin","geo":{"lat":"31.8994","lon":"-102.341"}},{"entityID":"https://shibboleth-2.baylor.edu/idp/shibboleth","country":"US","title":"Baylor University","geo":{"lat":"31.5487218","lon":"-97.1144079"}},{"entityID":"https://shibboleth-dev-v.musc.edu/shibboleth-idp","country":"US","title":"ztest_Medical University of South Carolina","geo":{"lat":"33.836081","lon":"-81.1637245"}},{"entityID":"https://shibboleth-idp.collegenet.com/idp/shibboleth","country":"US","title":"CollegeNET, Inc.","geo":{"lat":"35.163939","lon":"-106.590531"},"icon":"cached/e47dce8bf8f2505aac09c90613f814a30977713a"},{"entityID":"https://shibboleth.allegheny.edu/idp/shibboleth","country":"US","title":"Allegheny College","geo":{"lat":"41.649349","lon":"-80.1449494"},"icon":"cached/f1776c88523f2fd10491f6ca685635c69575b99e"},{"entityID":"https://shibboleth.ameslab.gov/idp/shibboleth","country":"US","title":"Ames Laboratory","geo":{"lat":"42.02997","lon":"-93.6483192"}},{"entityID":"https://shibboleth.brandeis.edu/idp/shibboleth","country":"US","title":"Brandeis University","geo":{"lat":"42.3654347","lon":"-71.258595"}},{"entityID":"https://shibboleth.coconino.edu/idp/shibboleth","country":"US","title":"Coconino County Community College","geo":{"lat":"35.2353","lon":"-111.721"}},{"entityID":"https://shibboleth.csuchico.edu/idp/shibboleth","country":"US","title":"California State University, Chico","geo":{"lat":"39.729621","lon":"-121.8495879"},"icon":"cached/4a10d2eb7098f91b7132099216069477e69d4f52"},{"entityID":"https://shibboleth.csupomona.edu/idp/shibboleth","country":"US","title":"California State Polytechnic University, Pomona","geo":{"lat":"34.0552854","lon":"-117.819024"}},{"entityID":"https://shibboleth.csustan.edu/idp/shibboleth","country":"US","title":"California State University, Stanislaus","geo":{"lat":"37.5247307","lon":"-120.8542011"}},{"entityID":"https://shibboleth.fullerton.edu/idp/shibboleth","country":"US","title":"California State University, Fullerton","geo":{"lat":"33.882174","lon":"-117.885265"}},{"entityID":"https://shibboleth.gmu.edu/idp/shibboleth","country":"US","title":"George Mason University","geo":{"lat":"38.8292609","lon":"-77.3152113"}},{"entityID":"https://shibboleth.hamilton.edu/idp/shibboleth","country":"US","title":"Hamilton College","geo":{"lat":"43.0530933","lon":"-75.4089154"},"icon":"cached/5b5cad1bff0aa948f918f85183fb0c5d3f5a6c7b"},{"entityID":"https://shibboleth.its.msstate.edu/idp/shibboleth","country":"US","title":"Mississippi State University","geo":{"lat":"33.4549275","lon":"-88.7955818"}},{"entityID":"https://shibboleth.lib.uh.edu/idp/shibboleth","country":"US","title":"University of Houston Libraries","geo":{"lat":"29.721065","lon":"-95.3420551"},"icon":"cached/3f5c7845f2b55494718666e9c40a97addb2e94b2"},{"entityID":"https://shibboleth.nss.udel.edu/idp/shibboleth","country":"US","title":"University of Delaware","geo":{"lat":"39.6680767","lon":"-75.7458708"}},{"entityID":"https://shibboleth.pace.edu/idp/shibboleth","country":"US","title":"Pace University","geo":{"lat":"40.7113646","lon":"-74.0051318"}},{"entityID":"https://shibboleth.salisbury.edu/idp/shibboleth","country":"US","title":"Salisbury University","geo":{"lat":"39.0007","lon":"-76.973"},"icon":"cached/a1d02932a49f6d7759053300bd8ad42e3c8ffdcf"},{"entityID":"https://shibboleth.twu.edu/idp/shibboleth","country":"US","title":"Texas Woman's University","geo":{"lat":"33.2201","lon":"-97.1502"},"icon":"cached/e5e5760c3099ee6974ad30e71e04c5eb4fb45f6f"},{"entityID":"https://shibboleth.uams.edu/idp/shibboleth","country":"US","title":"University of Arkansas for Medical Sciences","geo":{"lat":"34.7473718","lon":"-92.3207802"}},{"entityID":"https://shibboleth.uchastings.edu/idp/shibboleth","country":"US","title":"University of California Hastings College of the Law","geo":{"lat":"37.7810386","lon":"-122.4150481"}},{"entityID":"https://shibboleth.uconn.edu/idp/shibboleth","country":"US","title":"University of Connecticut","geo":{"lat":"41.8079747","lon":"-72.2536259"}},{"entityID":"https://shibboleth.uic.edu/shibboleth","country":"US","title":"University of Illinois at Chicago","geo":{"lat":"41.869622","lon":"-87.6494808"}},{"entityID":"https://shibboleth.umich.edu/idp/shibboleth","country":"US","title":"University of Michigan","geo":{"lat":"42.2803545","lon":"-83.7403132"},"icon":"cached/b5d106a19f39bf8bdac7dc5aa8aad6b16b20ad0e"},{"entityID":"https://shibboleth.uoregon.edu/idp/shibboleth","country":"US","title":"University of Oregon","geo":{"lat":"44.0441731","lon":"-123.0702749"},"icon":"cached/22f3154529bba1d940182a07398ae9f7b528c8eb"},{"entityID":"https://shibboleth.usu.edu/idp/shibboleth","country":"US","title":"Utah State University","geo":{"lat":"41.7521719","lon":"-111.810653"}},{"entityID":"https://shibboleth.uwyo.edu/idp/shibboleth","country":"US","title":"University of Wyoming","geo":{"lat":"41.3114","lon":"-105.5911"},"icon":"cached/a52afc64d6f64ecabe9331b2bda5a4a0e113b8d6"},{"entityID":"https://shibboleth.vcu.edu/idp/shibboleth","country":"US","title":"Virginia Commonwealth University","geo":{"lat":"37.5483944","lon":"-77.4522697"}},{"entityID":"https://shibidp.amherst.edu/idp/shibboleth","country":"US","title":"Amherst College","geo":{"lat":"42.3720228","lon":"-72.5143728"}},{"entityID":"https://shibidp.bates.edu/idp/shibboleth","country":"US","title":"Bates College","geo":{"lat":"44.0845","lon":"-70.1696"},"icon":"cached/90754a9162a8354d41c876671167ad1696cbecec"},{"entityID":"https://shibidp.bloomu.edu/idp/shibboleth","country":"US","title":"Bloomsburg University of Pennsylvania","geo":{"lat":"41.0083085","lon":"-76.446909"},"icon":"cached/4f56abd92e0341f81c41c42d7d904b85b7d01511"},{"entityID":"https://shibidp.cit.cornell.edu/idp/shibboleth","country":"US","title":"Cornell University","geo":{"lat":"42.4513548","lon":"-76.4765519"}},{"entityID":"https://shibidp.colostate.edu/idp/shibboleth","country":"US","title":"Colorado State University","geo":{"lat":"40.5747175","lon":"-105.0848293"},"icon":"cached/e9dfda3f0313bffc95a6112247a7cfdf92707157"},{"entityID":"https://shibidp.cpcc.edu/idp/shibboleth","country":"US","title":"Central Piedmont Community College","geo":{"lat":"35.2177744","lon":"-80.8296081"}},{"entityID":"https://shibidp.ku.edu/idp/shibboleth","country":"US","title":"University of Kansas","geo":{"lat":"38.9558588","lon":"-95.2501629"},"icon":"cached/f258a62ea96abba9e305324b5f8fce7fec3832ae"},{"entityID":"https://shibidp.luc.edu/idp/shibboleth","country":"US","title":"Loyola University of Chicago","geo":{"lat":"41.9984459","lon":"-87.6588786"}},{"entityID":"https://shibidp.moxiesoft.com/idp/shibboleth","country":"US","title":"Moxie Software, Inc.","geo":{"lat":"47.5839","lon":"-122.299"}},{"entityID":"https://shibidp.syr.edu/idp/shibboleth","country":"US","title":"Syracuse University","geo":{"lat":"43.0387331","lon":"-76.1341632"}},{"entityID":"https://shibidp.whoi.edu/idp/shibboleth","country":"US","title":"Woods Hole Oceanographic Institution","geo":{"lat":"41.5281","lon":"-70.6535"}},{"entityID":"https://shibidp.wsu.edu/idp/shibboleth","country":"US","title":"Washington State University","geo":{"lat":"46.7336442","lon":"-117.1477538"}},{"entityID":"https://shibprodapp.loyola.edu/idp/shibboleth","country":"US","title":"Loyola University Maryland","geo":{"lat":"39.3462543","lon":"-76.6174433"}},{"entityID":"https://sid.swarthmore.edu/idp/shibboleth","country":"US","title":"Swarthmore College","geo":{"lat":"39.8964","lon":"-75.3463"}},{"entityID":"https://signin.k-state.edu/idp/shibboleth","country":"US","title":"Kansas State University","geo":{"lat":"39.186112","lon":"-96.5817746"},"icon":"cached/a9d2ef2e7d10a482d0b677b6d073f7de1663d57e"},{"entityID":"https://singlesignon.gwu.edu/idp/shibboleth","country":"US","title":"The George Washington University","geo":{"lat":"38.9007683","lon":"-77.0474734"},"icon":"cached/8ae8a27eb1113d6742216f97cf5616152c9724f6"},{"entityID":"https://sm-prd.umasscs.net/fed/idp","country":"US","title":"University of Massachusetts System","geo":{"lat":"42.296","lon":"-71.713"}},{"entityID":"https://smidp.uwstout.edu/idp/shibboleth","country":"US","title":"University of Wisconsin - Stout","geo":{"lat":"44.8471","lon":"-92.0009"}},{"entityID":"https://sonny.furman.edu/idp","country":"US","title":"Furman University","geo":{"lat":"34.924373","lon":"-82.4385703"}},{"entityID":"https://sso.augsburg.edu/simplesaml/saml2/idp/metadata.php","country":"US","title":"Augsburg College","geo":{"lat":"44.9713","lon":"-93.2495"}},{"entityID":"https://sso.brown.edu/idp/shibboleth","country":"US","title":"Brown University","geo":{"lat":"41.8310893","lon":"-71.3980237"}},{"entityID":"https://sso.cc.lehigh.edu/sso/saml2/idp/metadata.php","country":"US","title":"Lehigh University","geo":{"lat":"40.6031757","lon":"-75.3776524"},"icon":"cached/accac01eb54bc601271e9638859f89e9e33d275a"},{"entityID":"https://sso.cedarville.edu/idp/shibboleth","country":"US","title":"Cedarville University","geo":{"lat":"29.4889","lon":"-98.3987"}},{"entityID":"https://sso.csumb.edu/idp/shibboleth","country":"US","title":"California State University, Monterey Bay","geo":{"lat":"36.6508666","lon":"-121.7993944"}},{"entityID":"https://sso.ecu.edu/idp/shibboleth","country":"US","title":"East Carolina University","geo":{"lat":"35.607482","lon":"-77.366959"}},{"entityID":"https://sso.fau.edu/idp/shibboleth","country":"US","title":"Florida Atlantic University","geo":{"lat":"27.326435","lon":"-80.3985695"},"icon":"cached/d90bb544d72d7be2e46f7603dc7fd6227b6b8d52"},{"entityID":"https://sso.it.utsa.edu/idp/shibboleth","country":"US","title":"University of Texas at San Antonio","geo":{"lat":"29.5849568","lon":"-98.626502"},"icon":"cached/1cba2129244aeefa71ed8c7f391d72d5a68ef043"},{"entityID":"https://sso.memphis.edu/idp/shibboleth","country":"US","title":"The University of Memphis","geo":{"lat":"35.1186099","lon":"-89.9370011"}},{"entityID":"https://sso.pacificu.edu/idp/shibboleth","country":"US","title":"Pacific University","geo":{"lat":"44.0497935","lon":"-123.0920556"},"icon":"cached/9c637547df72700f406abf463ab51d08176a8c09"},{"entityID":"https://sso.uah.edu/idp/shibboleth","country":"US","title":"University of Alabama in Huntsville","geo":{"lat":"34.7339","lon":"-86.6456"},"icon":"cached/8f7aa962a3bbed22e2b6cbafe2c07115e5d8a34f"},{"entityID":"https://sso.umuc.edu/idp/shibboleth","country":"US","title":"University Of Maryland University College","geo":{"lat":"38.9128542","lon":"-76.8465724"}},{"entityID":"https://sso.unt.edu/idp/shibboleth","country":"US","title":"University of North Texas System","geo":{"lat":"32.7815985","lon":"-96.7951397"}},{"entityID":"https://thelonious.campusguard.com/idp/shibboleth","country":"US","title":"Merchant Preservation Services","geo":{"lat":"39.6603","lon":"-104.8438"}},{"entityID":"https://uisshibb1.uis.edu/idp/shibboleth","country":"US","title":"University of Illinois At Springfield","geo":{"lat":"39.7298505","lon":"-89.619279"},"icon":"cached/7b583c4999bc56066c919fff4aa5374a57021309"},{"entityID":"https://ukidp.uky.edu/idp/shibboleth","country":"US","title":"University of Kentucky","geo":{"lat":"38.0271879","lon":"-84.5039751"}},{"entityID":"https://umshibp.olemiss.edu/idp/shibboleth","country":"US","title":"University of Mississippi","geo":{"lat":"34.36509","lon":"-89.53584"},"icon":"cached/3b27fa0e33055d18b2f70d70992468bd59261753"},{"entityID":"https://unmpidp.unm.edu/idp/shibboleth","country":"US","title":"University of New Mexico","geo":{"lat":"35.0859413","lon":"-106.6202887"}},{"entityID":"https://usd-shibboleth.usd.edu/idp/shibboleth","country":"US","title":"University of South Dakota","geo":{"lat":"42.7872223","lon":"-96.9249387"},"icon":"cached/235c5c790a0f23a719e2b86eebd99d4838319d5a"},{"entityID":"https://uwgb.edu/idp","country":"US","title":"University of Wisconsin - Green Bay","geo":{"lat":"44.5241","lon":"-87.9056"},"icon":"cached/677719091d7d3f768f59d9e1e29ef0f73540ac4a"},{"entityID":"https://vince.csueastbay.edu/idp/shibboleth","country":"US","title":"California State University, East Bay","geo":{"lat":"37.6557996","lon":"-122.0577361"}},{"entityID":"https://vm-shibboleth.umb.edu/idp/shibboleth","country":"US","title":"University of Massachusetts Boston","geo":{"lat":"42.3141307","lon":"-71.0364051"}},{"entityID":"https://vsu-pbslive-01v.vsu.edu/idp/shibboleth","country":"US","title":"Virginia State University","geo":{"lat":"37.2380253","lon":"-77.4199931"}},{"entityID":"https://vushib-idp.vanderbilt.edu/idp/Shibboleth","country":"US","title":"Vanderbilt University","geo":{"lat":"36.1438149","lon":"-86.8071664"}},{"entityID":"https://webauth.auburn.edu/idp/shibboleth","country":"US","title":"Auburn University","geo":{"lat":"32.6033726","lon":"-85.4861115"}},{"entityID":"https://webauth.cmc.edu/idp/shibboleth","country":"US","title":"Claremont McKenna College","geo":{"lat":"34.1223","lon":"-117.7143"}},{"entityID":"https://webauth.meredith.edu/idp/shibboleth","country":"US","title":"Meredith College","geo":{"lat":"35.7974672","lon":"-78.6895086"},"icon":"cached/2ef42ffd12f668b403c6c55f0490b696c019be49"},{"entityID":"https://webauth.njit.edu/idp/shibboleth","country":"US","title":"New Jersey Institute of Technology","geo":{"lat":"40.7424914","lon":"-74.1780776"}},{"entityID":"https://webauth.oit.umass.edu/idp/shibboleth","country":"US","title":"University of Massachusetts Amherst","geo":{"lat":"42.3894234","lon":"-72.5278773"}},{"entityID":"https://webauth.shib.lsu.edu/idp/shibboleth","country":"US","title":"Louisiana State University","geo":{"lat":"30.4745662","lon":"-92.434126"},"icon":"cached/c6f78568d2329e2081ce688dec12be4dd07af578"},{"entityID":"https://webauth.umaryland.edu/idp/shibboleth","country":"US","title":"University of Maryland Baltimore","geo":{"lat":"39.2533917","lon":"-76.7118645"},"icon":"cached/8fcad4fbdc23acc40752074921bf0d85e5aba79a"},{"entityID":"https://webauth.wfunet.wfu.edu/saml/saml2/idp/metadata.php","country":"US","title":"Wake Forest University","geo":{"lat":"36.1356142","lon":"-80.2795195"}},{"entityID":"https://weblogin.albany.edu/shibboleth/idp2","country":"US","title":"University At Albany, State University of New York","geo":{"lat":"42.68743","lon":"-73.824905"},"icon":"cached/e1f02a5d45b925d5c68af75204a52f7aea8ffb75"},{"entityID":"https://webso.iup.edu/idp/shibboleth","country":"US","title":"Indiana University of Pennsylvania","geo":{"lat":"40.6140202","lon":"-79.1609372"},"icon":"cached/7ec3cfc95513433f88d2c6d85200a2edb41c97f7"},{"entityID":"https://websso.pomona.edu/","country":"US","title":"Pomona College","geo":{"lat":"34.1223","lon":"-117.7143"},"icon":"cached/de536b43c234ed22db6c28713ef181d287fb8a57"},{"entityID":"https://www.ohsu.edu/idp/shibboleth","country":"US","title":"Oregon Health & Science University","geo":{"lat":"45.4988534","lon":"-122.6858436"}},{"entityID":"urn:mace:incommon:alaska.edu","country":"US","title":"University of Alaska Statewide System","geo":{"lat":"64.8834","lon":"-147.498"},"icon":"cached/468e234388302f04b8cbe55efa81ebbeaa60ace6"},{"entityID":"urn:mace:incommon:arizona.edu","country":"US","title":"The University of Arizona","geo":{"lat":"32.2289614","lon":"-110.9483226"},"icon":"cached/de07e7c7de686efdace67caef06cc2e6a80d39bb"},{"entityID":"urn:mace:incommon:asu.edu","country":"US","title":"Arizona State University","geo":{"lat":"33.4198626","lon":"-111.9361252"}},{"entityID":"urn:mace:incommon:berkeley.edu","country":"US","title":"University of California, Berkeley","geo":{"lat":"37.8754404","lon":"-122.2455364"}},{"entityID":"urn:mace:incommon:buffalo.edu","country":"US","title":"The State University of New York at Buffalo","geo":{"lat":"42.9537794","lon":"-78.819443"},"icon":"cached/ed92a51239048d4e4fc5b19ae1715e5b91bf1eb8"},{"entityID":"urn:mace:incommon:carleton.edu","country":"US","title":"Carleton College","geo":{"lat":"44.4635162","lon":"-93.150166"},"icon":"cached/cd6ca85d2c534b5f47fc7e0e5a24f4dbdf9c30af"},{"entityID":"urn:mace:incommon:case.edu","country":"US","title":"Case Western Reserve University","geo":{"lat":"41.5064425","lon":"-81.6062468"}},{"entityID":"urn:mace:incommon:clemson.edu","country":"US","title":"Clemson University","geo":{"lat":"34.6688822","lon":"-82.8317874"},"icon":"cached/51becc478d918ae81b169ab66c89603e67d0adb7"},{"entityID":"urn:mace:incommon:columbia.edu","country":"US","title":"Columbia University","geo":{"lat":"44.045494","lon":"-123.0679552"}},{"entityID":"urn:mace:incommon:csun.edu","country":"US","title":"California State University, Northridge","geo":{"lat":"34.0687617","lon":"-118.4449415"}},{"entityID":"urn:mace:incommon:dartmouth.edu","country":"US","title":"Dartmouth College","geo":{"lat":"43.7035487","lon":"-72.2867582"}},{"entityID":"urn:mace:incommon:davie.k12.nc.us","country":"US","title":"Davie County Schools","geo":{"lat":"35.8865264","lon":"-80.5667274"}},{"entityID":"urn:mace:incommon:duke.edu","country":"US","title":"Duke University","geo":{"lat":"36.001407","lon":"-78.9346752"}},{"entityID":"urn:mace:incommon:humboldt.edu","country":"US","title":"Humboldt State University","geo":{"lat":"40.8754372","lon":"-124.0772627"}},{"entityID":"urn:mace:incommon:idp.protectnetwork.org","country":"US","title":"ProtectNetwork","geo":{"lat":"39.4964008","lon":"-106.0663981"}},{"entityID":"urn:mace:incommon:internet2.edu","country":"US","title":"Internet2","geo":{"lat":"42.2734","lon":"-83.7133"},"icon":"cached/183d041da5e8e5eeb2a3015be00f6f214ce5473f"},{"entityID":"urn:mace:incommon:iu.edu","country":"US","title":"Indiana University","geo":{"lat":"39.1700149","lon":"-86.5148133"},"icon":"cached/363b9c5f31c7c4a6d0a5445ecd9f49b3e6881da1"},{"entityID":"urn:mace:incommon:jmu.edu","country":"US","title":"James Madison University","geo":{"lat":"38.4370668","lon":"-78.8679886"}},{"entityID":"urn:mace:incommon:johnshopkins.edu","country":"US","title":"Johns Hopkins","geo":{"lat":"39.3289034","lon":"-76.620503"},"icon":"cached/6aab9b157702f4d438eab1748f3d92e6765a7f3c"},{"entityID":"urn:mace:incommon:lafayette.edu","country":"US","title":"Lafayette College","geo":{"lat":"40.700145","lon":"-75.2107114"}},{"entityID":"urn:mace:incommon:lbl.gov","country":"US","title":"Lawrence Berkeley National Laboratory","geo":{"lat":"37.8755","lon":"-122.2555"},"icon":"cached/f77b2480d67bf1112909fd58e7e7043e660c5b76"},{"entityID":"urn:mace:incommon:mcnc.org","country":"US","title":"MCNC","geo":{"lat":"35.7595731","lon":"-79.0192997"}},{"entityID":"urn:mace:incommon:mit.edu","country":"US","title":"Massachusetts Institute of Technology","geo":{"lat":"42.3599263","lon":"-71.0958314"}},{"entityID":"urn:mace:incommon:mlml.calstate.edu","country":"US","title":"Moss Landing Marine Laboratories","geo":{"lat":"36.8017939","lon":"-121.78827"}},{"entityID":"urn:mace:incommon:msu.edu","country":"US","title":"Michigan State University","geo":{"lat":"42.7033214","lon":"-84.4843604"}},{"entityID":"urn:mace:incommon:muohio.edu","country":"US","title":"Miami University","geo":{"lat":"39.50892","lon":"-84.7301597"}},{"entityID":"urn:mace:incommon:musc.edu","country":"US","title":"Medical University of South Carolina","geo":{"lat":"32.7851426","lon":"-79.9495308"}},{"entityID":"urn:mace:incommon:nau.edu","country":"US","title":"Northern Arizona University","geo":{"lat":"35.1836344","lon":"-111.654786"}},{"entityID":"urn:mace:incommon:ncsu.edu","country":"US","title":"North Carolina State University","geo":{"lat":"35.7787495","lon":"-78.6767477"},"icon":"cached/e25e747b72013c6c111fb49a1e599837a8eee79d"},{"entityID":"urn:mace:incommon:nih.gov","country":"US","title":"National Institutes of Health","geo":{"lat":"38.9998795","lon":"-77.1039288"}},{"entityID":"urn:mace:incommon:nmu.edu","country":"US","title":"Northern Michigan University","geo":{"lat":"46.5579286","lon":"-87.4034449"}},{"entityID":"urn:mace:incommon:northwestern.edu","country":"US","title":"Northwestern University","geo":{"lat":"42.0540677","lon":"-87.6788967"}},{"entityID":"urn:mace:incommon:nyu.edu","country":"US","title":"New York University","geo":{"lat":"40.7272564","lon":"-73.9952275"}},{"entityID":"urn:mace:incommon:odu.edu","country":"US","title":"Old Dominion University","geo":{"lat":"36.8855271","lon":"-76.3058051"},"icon":"cached/aaafa1a59369253254120c0e61483fc31742e3eb"},{"entityID":"urn:mace:incommon:ohio.edu","country":"US","title":"Ohio University Main Campus","geo":{"lat":"41.5020023","lon":"-81.6090311"}},{"entityID":"urn:mace:incommon:ohiolink.edu","country":"US","title":"OhioLink","geo":{"lat":"39.9881","lon":"-83.0444"},"icon":"cached/1a2b6cf900274c7a71c9a33af723e2caf4e3aa92"},{"entityID":"urn:mace:incommon:osu.edu","country":"US","title":"Ohio State University","geo":{"lat":"40.0126385","lon":"-83.030767"},"icon":"cached/c03ea9e0181dd321dbe5b4e90f867b740e0ad85d"},{"entityID":"urn:mace:incommon:psu.edu","country":"US","title":"Penn State","geo":{"lat":"41.2033216","lon":"-77.1945247"},"icon":"cached/6dbdc92d2807512004b71c50019e6d08c11dfe07"},{"entityID":"urn:mace:incommon:ramapo.edu","country":"US","title":"Ramapo College of New Jersey","geo":{"lat":"41.082002","lon":"-74.1763893"}},{"entityID":"urn:mace:incommon:richmond.edu","country":"US","title":"University of Richmond","geo":{"lat":"37.575628","lon":"-77.5408178"}},{"entityID":"urn:mace:incommon:rock.k12.nc.us","country":"US","title":"Rockingham County Schools","geo":{"lat":"36.469027","lon":"-79.747438"}},{"entityID":"urn:mace:incommon:rutgers.edu","country":"US","title":"Rutgers, The State University of New Jersey","geo":{"lat":"40.7410495","lon":"-74.172438"}},{"entityID":"urn:mace:incommon:sc.edu","country":"US","title":"University of South Carolina","geo":{"lat":"33.9956398","lon":"-81.0277547"}},{"entityID":"urn:mace:incommon:stanford.edu","country":"US","title":"Stanford University","geo":{"lat":"37.42315","lon":"-122.1766417"},"icon":"cached/9ba7e053f170491373336bc6b065cd334ee791e0"},{"entityID":"urn:mace:incommon:starkstate.edu","country":"US","title":"Stark State College of Technology","geo":{"lat":"40.867801","lon":"-81.441677"}},{"entityID":"urn:mace:incommon:stevens.edu","country":"US","title":"Stevens Institute of Technology","geo":{"lat":"40.7443578","lon":"-74.0248712"}},{"entityID":"urn:mace:incommon:stonybrook.edu","country":"US","title":"Stony Brook University","geo":{"lat":"40.9123383","lon":"-73.120208"}},{"entityID":"urn:mace:incommon:tamu.edu","country":"US","title":"Texas A & M University","geo":{"lat":"29.282779","lon":"-94.867455"},"icon":"cached/b2aaf3966b374478774a98a4f0deccd6c2d61d26"},{"entityID":"urn:mace:incommon:uab.edu","country":"US","title":"University of Alabama at Birmingham","geo":{"lat":"33.5009598","lon":"-86.8044586"}},{"entityID":"urn:mace:incommon:ucdavis.edu","country":"US","title":"University of California, Davis","geo":{"lat":"38.5394981","lon":"-121.7384352"},"icon":"cached/eb24020737b0cc6b33794ab93730d73d88aa702a"},{"entityID":"urn:mace:incommon:uchicago.edu","country":"US","title":"University of Chicago","geo":{"lat":"41.7894268","lon":"-87.5977417"},"icon":"cached/753687e2eb12c16e6eedf72577ae37e6009d3052"},{"entityID":"urn:mace:incommon:uci.edu","country":"US","title":"University of California-Irvine","geo":{"lat":"33.6494547","lon":"-117.8457956"}},{"entityID":"urn:mace:incommon:ucla.edu","country":"US","title":"University of California-Los Angeles","geo":{"lat":"34.0687617","lon":"-118.4449415"}},{"entityID":"urn:mace:incommon:ucmerced.edu","country":"US","title":"University of California, Merced","geo":{"lat":"37.3630352","lon":"-120.4285613"}},{"entityID":"urn:mace:incommon:ucop.edu","country":"US","title":"University of California - Office of the President","geo":{"lat":"37.8023005","lon":"-122.2714215"}},{"entityID":"urn:mace:incommon:ucr.edu","country":"US","title":"University of California, Riverside","geo":{"lat":"33.9753295","lon":"-117.3293277"}},{"entityID":"urn:mace:incommon:ucsb.edu","country":"US","title":"University of California-Santa Barbara","geo":{"lat":"34.414899","lon":"-119.8431197"}},{"entityID":"urn:mace:incommon:ucsc.edu","country":"US","title":"University of California, Santa Cruz","geo":{"lat":"36.9903333","lon":"-122.0586009"},"icon":"cached/d8adb8a941c3810bfdc7fa7ce52c24c06a76ae21"},{"entityID":"urn:mace:incommon:ucsd.edu","country":"US","title":"University of California-San Diego","geo":{"lat":"32.8774915","lon":"-117.2352765"}},{"entityID":"urn:mace:incommon:ucsf.edu","country":"US","title":"University of California, San Francisco","geo":{"lat":"37.7717044","lon":"-122.4261485"}},{"entityID":"urn:mace:incommon:udayton.edu","country":"US","title":"University of Dayton","geo":{"lat":"39.7371958","lon":"-84.189666"},"icon":"cached/847cd5e9dd0a85cced71912b90baa30d53d718a0"},{"entityID":"urn:mace:incommon:uiowa.edu","country":"US","title":"University of Iowa","geo":{"lat":"41.6629213","lon":"-91.5620347"},"icon":"cached/ba42403dd31b731378dc3d19f5b1fcf08059e138"},{"entityID":"urn:mace:incommon:uiuc.edu","country":"US","title":"University of Illinois at Urbana-Champaign","geo":{"lat":"40.0985023","lon":"-88.2290783"}},{"entityID":"urn:mace:incommon:umbc.edu","country":"US","title":"University of Maryland Baltimore County","geo":{"lat":"39.2471702","lon":"-76.7100972"},"icon":"cached/3ab29c6579260b20ca48aa45dfa830aba40b584c"},{"entityID":"urn:mace:incommon:umd.edu","country":"US","title":"University of Maryland College Park","geo":{"lat":"38.9866173","lon":"-76.9473624"},"icon":"cached/27cddf9cc11d9ebedd26211ff015523f07485e54"},{"entityID":"urn:mace:incommon:umn.edu","country":"US","title":"University of Minnesota","geo":{"lat":"45.5886939","lon":"-95.8970354"}},{"entityID":"urn:mace:incommon:unc.edu","country":"US","title":"University of North Carolina at Chapel Hill","geo":{"lat":"35.9052082","lon":"-79.050381"},"icon":"cached/fef5b1710bc1c2fb06a9af6fe035e4ec1d255fa9"},{"entityID":"urn:mace:incommon:unoh.edu","country":"US","title":"University of Northwestern Ohio","geo":{"lat":"40.7590641","lon":"-84.1479763"}},{"entityID":"urn:mace:incommon:usc.edu","country":"US","title":"University of Southern California","geo":{"lat":"34.0233473","lon":"-118.2838165"}},{"entityID":"urn:mace:incommon:usf.edu","country":"US","title":"University of South Florida","geo":{"lat":"28.060954","lon":"-82.4146271"},"icon":"cached/104ef5fcb91792774eeed132e6672b9979b1789d"},{"entityID":"urn:mace:incommon:utah.edu","country":"US","title":"University of Utah","geo":{"lat":"40.7585639","lon":"-111.8389726"}},{"entityID":"urn:mace:incommon:uww.edu","country":"US","title":"University of Wisconsin - Whitewater","geo":{"lat":"42.836546","lon":"-88.743894"}},{"entityID":"urn:mace:incommon:virginia.edu","country":"US","title":"University of Virginia","geo":{"lat":"38.0350145","lon":"-78.5234903"}},{"entityID":"urn:mace:incommon:vt.edu","country":"US","title":"Virginia Polytechnic Institute and State University","geo":{"lat":"37.2243039","lon":"-80.4270885"},"icon":"cached/c4e54d235e63f578107fa4e72d7705ca8aecb820"},{"entityID":"urn:mace:incommon:washington.edu","country":"US","title":"University of Washington","geo":{"lat":"47.6516448","lon":"-122.3081762"},"icon":"cached/e1343bcad72ed087d55e011a9e0028362919fdb7"}]
